{"type":"FeatureCollection","features":[{"type":"Feature","geometry":{"type":"Point","coordinates":[2.17442,41.40365]},"properties":{"level":"parent","id":0,"rank":0,"users":104,"peak":1.0,"prom":0.854,"radius_m":250,"peak_at":[2.17421,41.40363],"name":"Sagrada Fam\u00edlia"}},{"type":"Feature","geometry":{"type":"Point","coordinates":[2.17703,41.38297]},"properties":{"level":"parent","id":1,"rank":1,"users":64,"peak":0.8,"prom":0.429,"radius_m":404,"peak_at":[2.1762,41.38395],"name":"Museu Frederic Mar\u00e8s"}},{"type":"Feature","geometry":{"type":"Point","coordinates":[2.15115,41.37044]},"properties":{"level":"parent","id":2,"rank":2,"users":24,"peak":0.648,"prom":0.525,"radius_m":353,"peak_at":[2.15146,41.37156],"name":"Magic Fountain of Montju\u00efc"}},{"type":"Feature","geometry":{"type":"Point","coordinates":[2.18894,41.40316]},"properties":{"level":"parent","id":3,"rank":3,"users":20,"peak":0.517,"prom":0.427,"radius_m":170,"peak_at":[2.18966,41.40346],"name":"Disseny Hub Barcelona (DHUB)"}},{"type":"Feature","geometry":{"type":"Point","coordinates":[2.15282,41.41437]},"properties":{"level":"parent","id":4,"rank":4,"users":19,"peak":0.52,"prom":0.415,"radius_m":155,"peak_at":[2.15326,41.41444],"name":"Casa Museu Gaud\u00ed"}},{"type":"Feature","geometry":{"type":"Point","coordinates":[2.11888,41.42192]},"properties":{"level":"parent","id":5,"rank":5,"users":8,"peak":0.508,"prom":0.371,"radius_m":138,"peak_at":[2.11873,41.42205],"name":"el Tibidabo"}},{"type":"Feature","geometry":{"type":"Point","coordinates":[2.16388,41.39306]},"properties":{"level":"parent","id":6,"rank":6,"users":64,"peak":0.562,"prom":0.191,"radius_m":285,"peak_at":[2.16501,41.39159],"name":"Casa Mulleras"}},{"type":"Feature","geometry":{"type":"Point","coordinates":[2.22009,41.41062]},"properties":{"level":"parent","id":7,"rank":7,"users":9,"peak":0.459,"prom":0.272,"radius_m":155,"peak_at":[2.22104,41.41113],"name":"Museu de Ci\u00e8ncies Naturals de Barcelona"}},{"type":"Feature","geometry":{"type":"Point","coordinates":[2.17422,41.412]},"properties":{"level":"parent","id":8,"rank":8,"users":6,"peak":0.403,"prom":0.334,"radius_m":138,"peak_at":[2.17424,41.41214],"name":"Sant Pau Recinte Modernista"}},{"type":"Feature","geometry":{"type":"Point","coordinates":[2.16678,41.36383]},"properties":{"level":"parent","id":9,"rank":9,"users":8,"peak":0.395,"prom":0.32,"radius_m":138,"peak_at":[2.1663,41.36381],"name":"Montju\u00efc Castle"}},{"type":"Feature","geometry":{"type":"Point","coordinates":[2.17908,41.3755]},"properties":{"level":"parent","id":10,"rank":10,"users":12,"peak":0.402,"prom":0.172,"radius_m":155,"peak_at":[2.17813,41.37523],"name":"Columbus Monument"}},{"type":"Feature","geometry":{"type":"Point","coordinates":[2.19079,41.38385]},"properties":{"level":"parent","id":11,"rank":11,"users":12,"peak":0.436,"prom":0.119,"radius_m":138,"peak_at":[2.19026,41.3835],"name":"Parc de la Barceloneta"}},{"type":"Feature","geometry":{"type":"Point","coordinates":[2.19637,41.3868]},"properties":{"level":"parent","id":12,"rank":12,"users":7,"peak":0.402,"prom":0.072,"radius_m":155,"peak_at":[2.19646,41.38722],"name":"Parc de les Cascades"}},{"type":"Feature","geometry":{"type":"Point","coordinates":[2.16985,41.38636]},"properties":{"level":"parent","id":13,"rank":13,"users":18,"peak":0.447,"prom":0.0,"radius_m":183,"peak_at":[2.16998,41.38654],"name":"Monument to Francesc Maci\u00e0"}},{"type":"Feature","geometry":{"type":"Point","coordinates":[2.18082,41.39159]},"properties":{"level":"parent","id":14,"rank":14,"users":5,"peak":0.271,"prom":0.166,"radius_m":120,"peak_at":[2.18082,41.39159],"name":"Triumphal Arch"}},{"type":"Feature","geometry":{"type":"Point","coordinates":[2.16692,41.38304]},"properties":{"level":"parent","id":15,"rank":15,"users":10,"peak":0.335,"prom":0.0,"radius_m":120,"peak_at":[2.16706,41.38316],"name":"Barcelona Museum of Contemporary Art"}},{"type":"Feature","geometry":{"type":"Point","coordinates":[2.17637,41.38386]},"properties":{"level":"child","parent":1,"users":34,"peak":0.8,"prom":0.294,"radius_m":138,"peak_at":[2.1762,41.38395],"name":"Museu Frederic Mar\u00e8s"}},{"type":"Feature","geometry":{"type":"Point","coordinates":[2.1819,41.38361]},"properties":{"level":"child","parent":1,"users":10,"peak":0.506,"prom":0.0,"radius_m":120,"peak_at":[2.1819,41.38361],"name":"Santa Maria del Mar"}},{"type":"Feature","geometry":{"type":"Point","coordinates":[2.15167,41.3703]},"properties":{"level":"child","parent":2,"users":12,"peak":0.648,"prom":0.077,"radius_m":155,"peak_at":[2.15146,41.37156],"name":"Magic Fountain of Montju\u00efc"}},{"type":"Feature","geometry":{"type":"Point","coordinates":[2.14928,41.3742]},"properties":{"level":"child","parent":2,"users":7,"peak":0.57,"prom":0.0,"radius_m":120,"peak_at":[2.14916,41.37502],"name":"Fountain of Pla\u00e7a d'Espanya"}},{"type":"Feature","geometry":{"type":"Point","coordinates":[2.16501,41.39159]},"properties":{"level":"child","parent":6,"users":14,"peak":0.562,"prom":0.262,"radius_m":120,"peak_at":[2.16501,41.39159],"name":"Casa Mulleras"}},{"type":"Feature","geometry":{"type":"Point","coordinates":[2.15295,41.41409]},"properties":{"level":"child","parent":4,"users":13,"peak":0.52,"prom":0.279,"radius_m":120,"peak_at":[2.15326,41.41444],"name":"Casa Museu Gaud\u00ed"}},{"type":"Feature","geometry":{"type":"Point","coordinates":[2.18966,41.40346]},"properties":{"level":"child","parent":3,"users":14,"peak":0.517,"prom":0.238,"radius_m":120,"peak_at":[2.18966,41.40346],"name":"Disseny Hub Barcelona (DHUB)"}}]}