{"type":"FeatureCollection","features":[{"type":"Feature","geometry":{"type":"Point","coordinates":[11.26496,43.76155]},"properties":{"level":"parent","id":0,"rank":0,"users":15,"peak":1.0,"prom":0.515,"radius_m":259,"peak_at":[11.2647,43.75983],"name":"Basilica di San Miniato al Monte","type":"culture"}},{"type":"Feature","geometry":{"type":"Point","coordinates":[11.24958,43.78126]},"properties":{"level":"parent","id":1,"rank":1,"users":2,"peak":0.611,"prom":0.421,"radius_m":138,"peak_at":[11.24948,43.78056],"name":"Piazza Bambine e Bambini di Beslan","type":"nature"}},{"type":"Feature","geometry":{"type":"Point","coordinates":[11.2063,43.83074]},"properties":{"level":"parent","id":2,"rank":2,"users":1,"peak":0.415,"prom":0.415,"radius_m":120,"peak_at":[11.2065,43.83073],"name":"Giardino di Villa Corsi Salviati","type":"nature"}},{"type":"Feature","geometry":{"type":"Point","coordinates":[11.25563,43.77382]},"properties":{"level":"parent","id":3,"rank":3,"users":22,"peak":0.572,"prom":0.0,"radius_m":155,"peak_at":[11.25687,43.77457],"name":"Museo dell'Opera del Duomo","type":"culture"}},{"type":"Feature","geometry":{"type":"Point","coordinates":[11.25247,43.76913]},"properties":{"level":"parent","id":4,"rank":4,"users":5,"peak":0.289,"prom":0.0,"radius_m":120,"peak_at":[11.25188,43.76882],"name":"Palazzo Davanzati","type":"culture"}}]}