{"type":"FeatureCollection","features":[{"type":"Feature","geometry":{"type":"Point","coordinates":[24.91528,60.16971]},"properties":{"level":"parent","id":0,"rank":0,"users":4,"peak":1.0,"prom":0.838,"radius_m":230,"peak_at":[24.91585,60.16956],"name":"Lapinlahden Puutarha"}},{"type":"Feature","geometry":{"type":"Point","coordinates":[24.87024,60.19544]},"properties":{"level":"parent","id":1,"rank":1,"users":2,"peak":0.821,"prom":0.821,"radius_m":208,"peak_at":[24.87064,60.19462],"name":"Kasinonpuisto"}},{"type":"Feature","geometry":{"type":"Point","coordinates":[24.95589,60.15376]},"properties":{"level":"parent","id":2,"rank":2,"users":4,"peak":0.821,"prom":0.616,"radius_m":219,"peak_at":[24.95698,60.15435],"name":"Memorial to Adolf Erik Nordenski\u00f6ld"}},{"type":"Feature","geometry":{"type":"Point","coordinates":[24.983,60.14124]},"properties":{"level":"parent","id":3,"rank":3,"users":3,"peak":0.821,"prom":0.41,"radius_m":240,"peak_at":[24.98249,60.14126],"name":"Piper park"}},{"type":"Feature","geometry":{"type":"Point","coordinates":[25.01762,60.1906]},"properties":{"level":"parent","id":4,"rank":4,"users":2,"peak":0.651,"prom":0.651,"radius_m":183,"peak_at":[25.01705,60.19041],"name":"Kipparlahden silta"}},{"type":"Feature","geometry":{"type":"Point","coordinates":[25.06334,60.22753]},"properties":{"level":"parent","id":5,"rank":5,"users":1,"peak":0.616,"prom":0.616,"radius_m":138,"peak_at":[25.06433,60.22803]}},{"type":"Feature","geometry":{"type":"Point","coordinates":[24.94181,60.19027]},"properties":{"level":"parent","id":6,"rank":6,"users":2,"peak":0.616,"prom":0.454,"radius_m":138,"peak_at":[24.94197,60.19013],"name":"Lenininpuisto"}},{"type":"Feature","geometry":{"type":"Point","coordinates":[24.96785,60.16766]},"properties":{"level":"parent","id":7,"rank":7,"users":1,"peak":0.616,"prom":0.41,"radius_m":138,"peak_at":[24.96785,60.16771],"name":"P\u00e4ivikki and Sakari Sohlberg Home Museum"}},{"type":"Feature","geometry":{"type":"Point","coordinates":[24.94641,60.18017]},"properties":{"level":"parent","id":8,"rank":8,"users":2,"peak":0.616,"prom":0.41,"radius_m":138,"peak_at":[24.94746,60.17982],"name":"Paasivuorenpuistikko"}},{"type":"Feature","geometry":{"type":"Point","coordinates":[24.96245,60.15837]},"properties":{"level":"parent","id":9,"rank":9,"users":1,"peak":0.616,"prom":0.41,"radius_m":138,"peak_at":[24.96256,60.15788],"name":"Mannerheim Museum"}},{"type":"Feature","geometry":{"type":"Point","coordinates":[24.91232,60.18011]},"properties":{"level":"parent","id":10,"rank":10,"users":2,"peak":0.486,"prom":0.486,"radius_m":138,"peak_at":[24.91262,60.18043],"name":"Sibelius Park"}},{"type":"Feature","geometry":{"type":"Point","coordinates":[24.92723,60.20173]},"properties":{"level":"parent","id":11,"rank":11,"users":1,"peak":0.41,"prom":0.41,"radius_m":120,"peak_at":[24.92723,60.20173],"name":"Halkopiipunkallio"}},{"type":"Feature","geometry":{"type":"Point","coordinates":[24.85716,60.15164]},"properties":{"level":"parent","id":12,"rank":12,"users":1,"peak":0.41,"prom":0.41,"radius_m":120,"peak_at":[24.85716,60.15164],"name":"Tykkipatteri 4B"}},{"type":"Feature","geometry":{"type":"Point","coordinates":[25.18403,60.19973]},"properties":{"level":"parent","id":13,"rank":13,"users":1,"peak":0.41,"prom":0.41,"radius_m":120,"peak_at":[25.18403,60.19973]}},{"type":"Feature","geometry":{"type":"Point","coordinates":[24.95717,60.19222]},"properties":{"level":"parent","id":14,"rank":14,"users":1,"peak":0.41,"prom":0.41,"radius_m":120,"peak_at":[24.95717,60.19222],"name":"Puu-Vallila"}},{"type":"Feature","geometry":{"type":"Point","coordinates":[25.07545,60.22612]},"properties":{"level":"parent","id":15,"rank":15,"users":1,"peak":0.41,"prom":0.41,"radius_m":120,"peak_at":[25.07545,60.22612],"name":"Myllypuro"}},{"type":"Feature","geometry":{"type":"Point","coordinates":[24.85742,60.20068]},"properties":{"level":"parent","id":16,"rank":16,"users":1,"peak":0.41,"prom":0.41,"radius_m":120,"peak_at":[24.85742,60.20068]}},{"type":"Feature","geometry":{"type":"Point","coordinates":[24.98566,60.12304]},"properties":{"level":"parent","id":17,"rank":17,"users":1,"peak":0.41,"prom":0.41,"radius_m":120,"peak_at":[24.98566,60.12304]}},{"type":"Feature","geometry":{"type":"Point","coordinates":[25.03035,60.23066]},"properties":{"level":"parent","id":18,"rank":18,"users":1,"peak":0.41,"prom":0.41,"radius_m":120,"peak_at":[25.03035,60.23066],"name":"Simo Klemetinpojan puisto"}},{"type":"Feature","geometry":{"type":"Point","coordinates":[24.96811,60.17288]},"properties":{"level":"parent","id":19,"rank":19,"users":1,"peak":0.41,"prom":0.41,"radius_m":120,"peak_at":[24.96811,60.17288]}},{"type":"Feature","geometry":{"type":"Point","coordinates":[24.9884,60.16525]},"properties":{"level":"parent","id":20,"rank":20,"users":1,"peak":0.41,"prom":0.41,"radius_m":120,"peak_at":[24.9884,60.16525]}},{"type":"Feature","geometry":{"type":"Point","coordinates":[24.92711,60.19633]},"properties":{"level":"parent","id":21,"rank":21,"users":1,"peak":0.41,"prom":0.41,"radius_m":120,"peak_at":[24.92711,60.19633],"name":"Palkkatilantori"}},{"type":"Feature","geometry":{"type":"Point","coordinates":[24.94308,60.32593]},"properties":{"level":"parent","id":22,"rank":22,"users":1,"peak":0.41,"prom":0.41,"radius_m":120,"peak_at":[24.94308,60.32593]}},{"type":"Feature","geometry":{"type":"Point","coordinates":[24.97455,60.14743]},"properties":{"level":"parent","id":23,"rank":23,"users":1,"peak":0.41,"prom":0.41,"radius_m":120,"peak_at":[24.97455,60.14743],"name":"West Mustasaari"}},{"type":"Feature","geometry":{"type":"Point","coordinates":[25.04771,60.24866]},"properties":{"level":"parent","id":24,"rank":24,"users":1,"peak":0.41,"prom":0.41,"radius_m":120,"peak_at":[25.04771,60.24866],"name":"Malmin lentoaseman aukio"}},{"type":"Feature","geometry":{"type":"Point","coordinates":[24.73226,60.16484]},"properties":{"level":"parent","id":25,"rank":25,"users":1,"peak":0.41,"prom":0.41,"radius_m":120,"peak_at":[24.73226,60.16484],"name":"Kuitinm\u00e4enaukio"}},{"type":"Feature","geometry":{"type":"Point","coordinates":[24.7776,60.17576]},"properties":{"level":"parent","id":26,"rank":26,"users":1,"peak":0.41,"prom":0.41,"radius_m":120,"peak_at":[24.7776,60.17576],"name":"Urheilupuisto"}},{"type":"Feature","geometry":{"type":"Point","coordinates":[24.81685,60.17011]},"properties":{"level":"parent","id":27,"rank":27,"users":1,"peak":0.41,"prom":0.41,"radius_m":120,"peak_at":[24.81685,60.17011],"name":"L\u00e4nsiranta"}},{"type":"Feature","geometry":{"type":"Point","coordinates":[24.8055,60.19144]},"properties":{"level":"parent","id":28,"rank":28,"users":1,"peak":0.41,"prom":0.41,"radius_m":120,"peak_at":[24.8055,60.19144]}},{"type":"Feature","geometry":{"type":"Point","coordinates":[25.15763,60.18467]},"properties":{"level":"parent","id":29,"rank":29,"users":1,"peak":0.41,"prom":0.41,"radius_m":120,"peak_at":[25.15763,60.18467]}},{"type":"Feature","geometry":{"type":"Point","coordinates":[24.79537,60.175]},"properties":{"level":"parent","id":30,"rank":30,"users":1,"peak":0.41,"prom":0.41,"radius_m":120,"peak_at":[24.79537,60.175],"name":"L\u00e4nsikorkee"}},{"type":"Feature","geometry":{"type":"Point","coordinates":[25.11457,60.23938]},"properties":{"level":"parent","id":31,"rank":31,"users":1,"peak":0.41,"prom":0.41,"radius_m":120,"peak_at":[25.11457,60.23938],"name":"Mellunm\u00e4ki"}},{"type":"Feature","geometry":{"type":"Point","coordinates":[24.9866,60.21307]},"properties":{"level":"parent","id":32,"rank":32,"users":1,"peak":0.41,"prom":0.41,"radius_m":120,"peak_at":[24.9866,60.21307],"name":"Verkatehtaanpuisto"}},{"type":"Feature","geometry":{"type":"Point","coordinates":[24.9432,60.19665]},"properties":{"level":"parent","id":33,"rank":33,"users":1,"peak":0.41,"prom":0.41,"radius_m":120,"peak_at":[24.9432,60.19665],"name":"Vanha teatterikentt\u00e4"}},{"type":"Feature","geometry":{"type":"Point","coordinates":[25.20978,60.34875]},"properties":{"level":"parent","id":34,"rank":34,"users":1,"peak":0.41,"prom":0.41,"radius_m":120,"peak_at":[25.20978,60.34875]}},{"type":"Feature","geometry":{"type":"Point","coordinates":[25.16487,60.19714]},"properties":{"level":"parent","id":35,"rank":35,"users":1,"peak":0.41,"prom":0.41,"radius_m":120,"peak_at":[25.16487,60.19714]}},{"type":"Feature","geometry":{"type":"Point","coordinates":[25.00526,60.22668]},"properties":{"level":"parent","id":36,"rank":36,"users":1,"peak":0.41,"prom":0.41,"radius_m":120,"peak_at":[25.00526,60.22668],"name":"Viikintori"}},{"type":"Feature","geometry":{"type":"Point","coordinates":[24.7584,60.15102]},"properties":{"level":"parent","id":37,"rank":37,"users":1,"peak":0.41,"prom":0.41,"radius_m":120,"peak_at":[24.7584,60.15102],"name":"Matinlahdenranta"}},{"type":"Feature","geometry":{"type":"Point","coordinates":[24.96471,60.20447]},"properties":{"level":"parent","id":38,"rank":38,"users":1,"peak":0.41,"prom":0.41,"radius_m":120,"peak_at":[24.96471,60.20447],"name":"Kumt\u00e4hden kentt\u00e4"}},{"type":"Feature","geometry":{"type":"Point","coordinates":[25.13957,60.32325]},"properties":{"level":"parent","id":39,"rank":39,"users":1,"peak":0.41,"prom":0.41,"radius_m":120,"peak_at":[25.13957,60.32325]}}]}