{"type":"FeatureCollection","features":[{"type":"Feature","geometry":{"type":"Point","coordinates":[-0.11093,51.50643]},"properties":{"level":"parent","id":0,"rank":0,"users":671,"peak":1.0,"prom":0.661,"radius_m":1222,"peak_at":[-0.13546,51.50246],"name":"St. James's"}},{"type":"Feature","geometry":{"type":"Point","coordinates":[-0.29433,51.47933]},"properties":{"level":"parent","id":1,"rank":1,"users":94,"peak":0.964,"prom":0.665,"radius_m":509,"peak_at":[-0.29278,51.47916],"name":"King William's Temple"}},{"type":"Feature","geometry":{"type":"Point","coordinates":[-0.00445,51.48117]},"properties":{"level":"parent","id":2,"rank":2,"users":76,"peak":0.885,"prom":0.691,"radius_m":549,"peak_at":[-0.00177,51.47795],"name":"Royal Observatory Greenwich"}},{"type":"Feature","geometry":{"type":"Point","coordinates":[-0.08859,51.56158]},"properties":{"level":"parent","id":3,"rank":3,"users":13,"peak":0.755,"prom":0.519,"radius_m":208,"peak_at":[-0.08903,51.56184],"name":"Clissold Park"}},{"type":"Feature","geometry":{"type":"Point","coordinates":[-0.10713,51.44972]},"properties":{"level":"parent","id":4,"rank":4,"users":6,"peak":0.724,"prom":0.555,"radius_m":317,"peak_at":[-0.10855,51.45059],"name":"Brockwell Park"}},{"type":"Feature","geometry":{"type":"Point","coordinates":[-0.23248,51.4893]},"properties":{"level":"parent","id":5,"rank":5,"users":16,"peak":0.718,"prom":0.515,"radius_m":317,"peak_at":[-0.23082,51.48949],"name":"Hammersmith Bridge"}},{"type":"Feature","geometry":{"type":"Point","coordinates":[-0.06181,51.44131]},"properties":{"level":"parent","id":6,"rank":6,"users":9,"peak":0.712,"prom":0.452,"radius_m":196,"peak_at":[-0.06128,51.44184],"name":"Horniman Museum and Gardens"}},{"type":"Feature","geometry":{"type":"Point","coordinates":[-0.04223,51.5353]},"properties":{"level":"parent","id":7,"rank":7,"users":25,"peak":0.704,"prom":0.44,"radius_m":449,"peak_at":[-0.0397,51.53709],"name":"Victoria Park"}},{"type":"Feature","geometry":{"type":"Point","coordinates":[0.07606,51.42774]},"properties":{"level":"parent","id":8,"rank":8,"users":1,"peak":0.567,"prom":0.567,"radius_m":196,"peak_at":[0.07538,51.42665],"name":"Belmont Lane Open Space"}},{"type":"Feature","geometry":{"type":"Point","coordinates":[-0.16318,51.56345]},"properties":{"level":"parent","id":9,"rank":9,"users":22,"peak":0.717,"prom":0.341,"radius_m":484,"peak_at":[-0.16368,51.56423],"name":"Hampstead Heath"}},{"type":"Feature","geometry":{"type":"Point","coordinates":[-0.23421,51.47804]},"properties":{"level":"parent","id":10,"rank":10,"users":9,"peak":0.615,"prom":0.468,"radius_m":277,"peak_at":[-0.23346,51.48013],"name":"St. Osmunds"}},{"type":"Feature","geometry":{"type":"Point","coordinates":[-0.17483,51.49647]},"properties":{"level":"parent","id":11,"rank":11,"users":21,"peak":0.611,"prom":0.45,"radius_m":230,"peak_at":[-0.1744,51.49595],"name":"Natural History Museum"}},{"type":"Feature","geometry":{"type":"Point","coordinates":[-0.16017,51.47959]},"properties":{"level":"parent","id":12,"rank":12,"users":15,"peak":0.73,"prom":0.215,"radius_m":268,"peak_at":[-0.15922,51.48059],"name":"Battersea Park Children's Zoo"}},{"type":"Feature","geometry":{"type":"Point","coordinates":[-0.0772,51.56355]},"properties":{"level":"parent","id":13,"rank":13,"users":6,"peak":0.563,"prom":0.406,"radius_m":219,"peak_at":[-0.07729,51.56341],"name":"Levy Memorial Ground"}},{"type":"Feature","geometry":{"type":"Point","coordinates":[-0.215,51.46754]},"properties":{"level":"parent","id":14,"rank":14,"users":15,"peak":0.572,"prom":0.368,"radius_m":302,"peak_at":[-0.21367,51.46651],"name":"Putney Bridge"}},{"type":"Feature","geometry":{"type":"Point","coordinates":[-0.16593,51.57148]},"properties":{"level":"parent","id":15,"rank":15,"users":9,"peak":0.573,"prom":0.362,"radius_m":219,"peak_at":[-0.16499,51.57191],"name":"Kenwood House"}},{"type":"Feature","geometry":{"type":"Point","coordinates":[0.03412,51.50036]},"properties":{"level":"parent","id":16,"rank":16,"users":11,"peak":0.731,"prom":0.122,"radius_m":259,"peak_at":[0.03429,51.50002],"name":"Thames Barrier Park"}},{"type":"Feature","geometry":{"type":"Point","coordinates":[-0.19853,51.42221]},"properties":{"level":"parent","id":17,"rank":17,"users":3,"peak":0.47,"prom":0.47,"radius_m":138,"peak_at":[-0.19782,51.4217],"name":"South Park Gardens"}},{"type":"Feature","geometry":{"type":"Point","coordinates":[-0.01983,51.50405]},"properties":{"level":"parent","id":18,"rank":18,"users":13,"peak":0.578,"prom":0.307,"radius_m":230,"peak_at":[-0.01925,51.50327],"name":"Canary Wharf"}},{"type":"Feature","geometry":{"type":"Point","coordinates":[-0.20415,51.50266]},"properties":{"level":"parent","id":19,"rank":19,"users":11,"peak":0.523,"prom":0.369,"radius_m":183,"peak_at":[-0.20409,51.50296],"name":"Kyoto Garden"}},{"type":"Feature","geometry":{"type":"Point","coordinates":[-0.01937,51.55108]},"properties":{"level":"parent","id":20,"rank":20,"users":1,"peak":0.528,"prom":0.352,"radius_m":250,"peak_at":[-0.01884,51.55171],"name":"Temple Mills Bridge"}},{"type":"Feature","geometry":{"type":"Point","coordinates":[-0.02858,51.4349]},"properties":{"level":"parent","id":21,"rank":21,"users":3,"peak":0.447,"prom":0.447,"radius_m":302,"peak_at":[-0.02858,51.43386],"name":"Pool River Linear Park"}},{"type":"Feature","geometry":{"type":"Point","coordinates":[-0.18499,51.59419]},"properties":{"level":"parent","id":22,"rank":22,"users":2,"peak":0.49,"prom":0.372,"radius_m":138,"peak_at":[-0.18454,51.59422],"name":"Marie Curie Cancer Care Garden of Hope"}},{"type":"Feature","geometry":{"type":"Point","coordinates":[-0.14593,51.56694]},"properties":{"level":"parent","id":23,"rank":23,"users":9,"peak":0.539,"prom":0.294,"radius_m":240,"peak_at":[-0.14724,51.56569],"name":"Highgate Cemetery"}},{"type":"Feature","geometry":{"type":"Point","coordinates":[-0.16945,51.50585]},"properties":{"level":"parent","id":24,"rank":24,"users":162,"peak":0.581,"prom":0.221,"radius_m":716,"peak_at":[-0.17207,51.50597],"name":"Serpentine North"}},{"type":"Feature","geometry":{"type":"Point","coordinates":[0.06929,51.57077]},"properties":{"level":"parent","id":25,"rank":25,"users":2,"peak":0.47,"prom":0.353,"radius_m":138,"peak_at":[0.06903,51.57063],"name":"Valentines Park"}},{"type":"Feature","geometry":{"type":"Point","coordinates":[0.03849,51.49502]},"properties":{"level":"parent","id":26,"rank":26,"users":7,"peak":0.609,"prom":0.092,"radius_m":170,"peak_at":[0.03894,51.49481],"name":"Structural Steel Design Award"}},{"type":"Feature","geometry":{"type":"Point","coordinates":[-0.27607,51.44074]},"properties":{"level":"parent","id":27,"rank":27,"users":14,"peak":0.469,"prom":0.277,"radius_m":353,"peak_at":[-0.27356,51.44269]}},{"type":"Feature","geometry":{"type":"Point","coordinates":[-0.102,51.56939]},"properties":{"level":"parent","id":28,"rank":28,"users":5,"peak":0.517,"prom":0.203,"radius_m":183,"peak_at":[-0.10317,51.56912],"name":"Site of Hornsey Wood House / Copt Hall"}},{"type":"Feature","geometry":{"type":"Point","coordinates":[-0.16743,51.48218]},"properties":{"level":"parent","id":29,"rank":29,"users":8,"peak":0.555,"prom":0.136,"radius_m":155,"peak_at":[-0.16697,51.48272],"name":"Albert Bridge"}},{"type":"Feature","geometry":{"type":"Point","coordinates":[0.00505,51.45591]},"properties":{"level":"parent","id":30,"rank":30,"users":5,"peak":0.392,"prom":0.338,"radius_m":120,"peak_at":[0.00489,51.45617],"name":"Manor House Gardens"}},{"type":"Feature","geometry":{"type":"Point","coordinates":[-0.01371,51.59021]},"properties":{"level":"parent","id":31,"rank":31,"users":1,"peak":0.353,"prom":0.353,"radius_m":120,"peak_at":[-0.01341,51.59027],"name":"War Memorial, Waltham Forest Town Hall"}},{"type":"Feature","geometry":{"type":"Point","coordinates":[-0.14416,51.59277]},"properties":{"level":"parent","id":32,"rank":32,"users":1,"peak":0.353,"prom":0.353,"radius_m":120,"peak_at":[-0.14412,51.59286],"name":"Muswell Hill"}},{"type":"Feature","geometry":{"type":"Point","coordinates":[-0.1533,51.52676]},"properties":{"level":"parent","id":33,"rank":33,"users":50,"peak":0.512,"prom":0.098,"radius_m":443,"peak_at":[-0.15751,51.52526],"name":"Sherlock Holmes Museum"}},{"type":"Feature","geometry":{"type":"Point","coordinates":[-0.1533,51.5353]},"properties":{"level":"parent","id":34,"rank":34,"users":20,"peak":0.506,"prom":0.103,"radius_m":277,"peak_at":[-0.1536,51.5354],"name":"London Zoo"}},{"type":"Feature","geometry":{"type":"Point","coordinates":[-0.1263,51.5211]},"properties":{"level":"parent","id":35,"rank":35,"users":21,"peak":0.449,"prom":0.164,"radius_m":196,"peak_at":[-0.12615,51.52114],"name":"Russell Square"}},{"type":"Feature","geometry":{"type":"Point","coordinates":[0.0622,51.49639]},"properties":{"level":"parent","id":36,"rank":36,"users":5,"peak":0.429,"prom":0.18,"radius_m":170,"peak_at":[0.06191,51.49646],"name":"North Woolwich Radar Mast"}},{"type":"Feature","geometry":{"type":"Point","coordinates":[-0.12636,51.48724]},"properties":{"level":"parent","id":37,"rank":37,"users":10,"peak":0.388,"prom":0.186,"radius_m":155,"peak_at":[-0.12568,51.48706],"name":"Vauxhall Bridge"}},{"type":"Feature","geometry":{"type":"Point","coordinates":[-0.03701,51.52528]},"properties":{"level":"parent","id":38,"rank":38,"users":5,"peak":0.404,"prom":0.139,"radius_m":183,"peak_at":[-0.03749,51.52566],"name":"Green Bridge"}},{"type":"Feature","geometry":{"type":"Point","coordinates":[-0.28646,51.48727]},"properties":{"level":"parent","id":39,"rank":39,"users":6,"peak":0.448,"prom":0.034,"radius_m":170,"peak_at":[-0.28624,51.48757],"name":"Kew Bridge"}},{"type":"Feature","geometry":{"type":"Point","coordinates":[-0.13455,51.50336]},"properties":{"level":"child","parent":0,"users":178,"peak":1.0,"prom":0.342,"radius_m":379,"peak_at":[-0.13546,51.50246],"name":"St. James's Park"}},{"type":"Feature","geometry":{"type":"Point","coordinates":[-0.07704,51.50615]},"properties":{"level":"child","parent":0,"users":125,"peak":0.953,"prom":0.282,"radius_m":317,"peak_at":[-0.07546,51.50547],"name":"Tower Bridge"}},{"type":"Feature","geometry":{"type":"Point","coordinates":[-0.12023,51.50425]},"properties":{"level":"child","parent":0,"users":236,"peak":0.932,"prom":0.135,"radius_m":443,"peak_at":[-0.11883,51.50456],"name":"London Eye"}},{"type":"Feature","geometry":{"type":"Point","coordinates":[-0.09848,51.50901]},"properties":{"level":"child","parent":0,"users":103,"peak":0.926,"prom":0.354,"radius_m":219,"peak_at":[-0.09901,51.50827],"name":"Tate Modern"}},{"type":"Feature","geometry":{"type":"Point","coordinates":[-0.12397,51.51293]},"properties":{"level":"child","parent":0,"users":48,"peak":0.727,"prom":0.058,"radius_m":196,"peak_at":[-0.12315,51.51237],"name":"Covent Garden Market"}},{"type":"Feature","geometry":{"type":"Point","coordinates":[-0.0881,51.50746]},"properties":{"level":"child","parent":0,"users":44,"peak":0.671,"prom":0.06,"radius_m":208,"peak_at":[-0.08794,51.50736],"name":"London Bridge"}},{"type":"Feature","geometry":{"type":"Point","coordinates":[-0.03839,51.53675]},"properties":{"level":"child","parent":7,"users":9,"peak":0.704,"prom":0.176,"radius_m":196,"peak_at":[-0.0397,51.53709],"name":"Burdett-Coutts Memorial"}},{"type":"Feature","geometry":{"type":"Point","coordinates":[-0.04605,51.53351]},"properties":{"level":"child","parent":7,"users":7,"peak":0.704,"prom":0.037,"radius_m":196,"peak_at":[-0.04489,51.53342],"name":"Pagoda"}},{"type":"Feature","geometry":{"type":"Point","coordinates":[-0.17052,51.50563]},"properties":{"level":"child","parent":24,"users":26,"peak":0.581,"prom":0.079,"radius_m":196,"peak_at":[-0.17207,51.50597],"name":"Serpentine Bridge"}},{"type":"Feature","geometry":{"type":"Point","coordinates":[-0.18471,51.50575]},"properties":{"level":"child","parent":24,"users":7,"peak":0.534,"prom":0.172,"radius_m":120,"peak_at":[-0.18471,51.50575],"name":"Queen Victoria"}},{"type":"Feature","geometry":{"type":"Point","coordinates":[-0.15703,51.50403]},"properties":{"level":"child","parent":24,"users":7,"peak":0.508,"prom":0.007,"radius_m":120,"peak_at":[-0.15703,51.50403],"name":"The Rose Garden"}},{"type":"Feature","geometry":{"type":"Point","coordinates":[-0.16024,51.50484]},"properties":{"level":"child","parent":24,"users":8,"peak":0.501,"prom":0.0,"radius_m":120,"peak_at":[-0.16024,51.50484],"name":"The Dell"}},{"type":"Feature","geometry":{"type":"Point","coordinates":[-0.1076,51.45013]},"properties":{"level":"child","parent":4,"users":3,"peak":0.724,"prom":0.471,"radius_m":208,"peak_at":[-0.10776,51.44933],"name":"Brockwell Park"}},{"type":"Feature","geometry":{"type":"Point","coordinates":[-0.17509,51.49648]},"properties":{"level":"child","parent":11,"users":11,"peak":0.611,"prom":0.317,"radius_m":120,"peak_at":[-0.1744,51.49595],"name":"Natural History Museum"}},{"type":"Feature","geometry":{"type":"Point","coordinates":[-0.00184,51.47862]},"properties":{"level":"child","parent":2,"users":35,"peak":0.885,"prom":0.276,"radius_m":183,"peak_at":[-0.00177,51.47795],"name":"Greenwich Meridian"}},{"type":"Feature","geometry":{"type":"Point","coordinates":[-0.00932,51.48399]},"properties":{"level":"child","parent":2,"users":23,"peak":0.821,"prom":0.299,"radius_m":219,"peak_at":[-0.01004,51.48367],"name":"Cutty Sark"}},{"type":"Feature","geometry":{"type":"Point","coordinates":[-0.14653,51.56612]},"properties":{"level":"child","parent":23,"users":3,"peak":0.539,"prom":0.212,"radius_m":120,"peak_at":[-0.14683,51.5665],"name":"Highgate Cemetery"}},{"type":"Feature","geometry":{"type":"Point","coordinates":[-0.16139,51.5642]},"properties":{"level":"child","parent":9,"users":9,"peak":0.717,"prom":0.014,"radius_m":219,"peak_at":[-0.16368,51.56423],"name":"Hampstead Heath"}},{"type":"Feature","geometry":{"type":"Point","coordinates":[-0.15983,51.56001]},"properties":{"level":"child","parent":9,"users":6,"peak":0.703,"prom":0.068,"radius_m":120,"peak_at":[-0.15937,51.55989],"name":"Parliament Hill"}},{"type":"Feature","geometry":{"type":"Point","coordinates":[-0.16901,51.56604]},"properties":{"level":"child","parent":9,"users":3,"peak":0.539,"prom":0.0,"radius_m":120,"peak_at":[-0.16876,51.56581],"name":"The Great Storm"}},{"type":"Feature","geometry":{"type":"Point","coordinates":[-0.07735,51.56422]},"properties":{"level":"child","parent":13,"users":4,"peak":0.563,"prom":0.236,"radius_m":120,"peak_at":[-0.07729,51.56341],"name":"Levy Memorial Ground"}},{"type":"Feature","geometry":{"type":"Point","coordinates":[-0.15751,51.52526]},"properties":{"level":"child","parent":33,"users":5,"peak":0.512,"prom":0.026,"radius_m":120,"peak_at":[-0.15751,51.52526],"name":"Sherlock Holmes Museum"}},{"type":"Feature","geometry":{"type":"Point","coordinates":[-0.1668,51.48214]},"properties":{"level":"child","parent":29,"users":5,"peak":0.555,"prom":0.136,"radius_m":120,"peak_at":[-0.16697,51.48272],"name":"Albert Bridge"}},{"type":"Feature","geometry":{"type":"Point","coordinates":[-0.21273,51.46675]},"properties":{"level":"child","parent":14,"users":4,"peak":0.572,"prom":0.147,"radius_m":120,"peak_at":[-0.21367,51.46651],"name":"Putney Bridge"}},{"type":"Feature","geometry":{"type":"Point","coordinates":[-0.01849,51.50364]},"properties":{"level":"child","parent":18,"users":4,"peak":0.578,"prom":0.181,"radius_m":120,"peak_at":[-0.01925,51.50327],"name":"Canary Wharf"}},{"type":"Feature","geometry":{"type":"Point","coordinates":[-0.20419,51.50257]},"properties":{"level":"child","parent":19,"users":7,"peak":0.523,"prom":0.28,"radius_m":120,"peak_at":[-0.20409,51.50296],"name":"Kyoto Garden"}},{"type":"Feature","geometry":{"type":"Point","coordinates":[-0.15874,51.48012]},"properties":{"level":"child","parent":12,"users":7,"peak":0.73,"prom":0.351,"radius_m":120,"peak_at":[-0.15922,51.48059],"name":"Battersea Park Children's Zoo"}},{"type":"Feature","geometry":{"type":"Point","coordinates":[-0.15341,51.5351]},"properties":{"level":"child","parent":34,"users":6,"peak":0.506,"prom":0.0,"radius_m":120,"peak_at":[-0.15321,51.5348],"name":"Lubetkin Pool"}},{"type":"Feature","geometry":{"type":"Point","coordinates":[-0.23423,51.47823]},"properties":{"level":"child","parent":10,"users":5,"peak":0.615,"prom":0.351,"radius_m":155,"peak_at":[-0.23346,51.48013],"name":"St. Osmunds"}}]}