{"type":"FeatureCollection","features":[{"type":"Feature","geometry":{"type":"Point","coordinates":[-0.01977,51.50439]},"properties":{"level":"parent","id":0,"rank":0,"users":77,"peak":0.94,"prom":0.664,"radius_m":277,"peak_at":[-0.01801,51.50439],"name":"Canary Wharf","type":"food"}},{"type":"Feature","geometry":{"type":"Point","coordinates":[-0.12285,51.50451]},"properties":{"level":"parent","id":1,"rank":1,"users":441,"peak":0.988,"prom":0.508,"radius_m":603,"peak_at":[-0.12612,51.50007],"name":"Westminster","type":"culture"}},{"type":"Feature","geometry":{"type":"Point","coordinates":[-0.08774,51.5093]},"properties":{"level":"parent","id":2,"rank":2,"users":765,"peak":1.0,"prom":0.454,"radius_m":807,"peak_at":[-0.07649,51.5076],"name":"Waterloo Block","type":"culture"}},{"type":"Feature","geometry":{"type":"Point","coordinates":[-0.17474,51.49666]},"properties":{"level":"parent","id":3,"rank":3,"users":61,"peak":0.844,"prom":0.379,"radius_m":250,"peak_at":[-0.17428,51.49601],"name":"Natural History Museum","type":"culture"}},{"type":"Feature","geometry":{"type":"Point","coordinates":[-0.14112,51.50146]},"properties":{"level":"parent","id":4,"rank":4,"users":99,"peak":0.783,"prom":0.414,"radius_m":183,"peak_at":[-0.14112,51.50163],"name":"Victoria Memorial","type":"culture"}},{"type":"Feature","geometry":{"type":"Point","coordinates":[-0.14571,51.54134]},"properties":{"level":"parent","id":5,"rank":5,"users":16,"peak":0.723,"prom":0.498,"radius_m":183,"peak_at":[-0.14557,51.54129],"name":"Camden Lock Market","type":"culture"}},{"type":"Feature","geometry":{"type":"Point","coordinates":[-0.27972,51.55609]},"properties":{"level":"parent","id":6,"rank":6,"users":5,"peak":0.584,"prom":0.497,"radius_m":120,"peak_at":[-0.28017,51.55644],"name":"Wembley Stadium","type":"culture"}},{"type":"Feature","geometry":{"type":"Point","coordinates":[-0.13027,51.59452]},"properties":{"level":"parent","id":7,"rank":7,"users":5,"peak":0.584,"prom":0.497,"radius_m":120,"peak_at":[-0.12948,51.59477],"name":"Alexandra Palace Transmitter","type":"culture"}},{"type":"Feature","geometry":{"type":"Point","coordinates":[-0.26466,51.49201]},"properties":{"level":"parent","id":8,"rank":8,"users":5,"peak":0.64,"prom":0.405,"radius_m":138,"peak_at":[-0.26431,51.49196],"name":"Turnham Green","type":"nature"}},{"type":"Feature","geometry":{"type":"Point","coordinates":[0.00413,51.50251]},"properties":{"level":"parent","id":9,"rank":9,"users":24,"peak":0.595,"prom":0.417,"radius_m":170,"peak_at":[0.00317,51.50303],"name":"The O2","type":"nightlife"}},{"type":"Feature","geometry":{"type":"Point","coordinates":[-0.23008,51.48892]},"properties":{"level":"parent","id":10,"rank":10,"users":13,"peak":0.606,"prom":0.352,"radius_m":120,"peak_at":[-0.2303,51.48855],"name":"Hammersmith Bridge","type":"culture"}},{"type":"Feature","geometry":{"type":"Point","coordinates":[-0.2876,51.48761]},"properties":{"level":"parent","id":11,"rank":11,"users":6,"peak":0.64,"prom":0.202,"radius_m":196,"peak_at":[-0.28584,51.48741],"name":"Kew Bridge","type":"culture"}},{"type":"Feature","geometry":{"type":"Point","coordinates":[0.06176,51.49306]},"properties":{"level":"parent","id":12,"rank":12,"users":3,"peak":0.537,"prom":0.35,"radius_m":120,"peak_at":[0.06093,51.49318],"name":"New Wine Church","type":"culture"}},{"type":"Feature","geometry":{"type":"Point","coordinates":[-0.00802,51.4831]},"properties":{"level":"parent","id":13,"rank":13,"users":17,"peak":0.557,"prom":0.22,"radius_m":138,"peak_at":[-0.00659,51.48327],"name":"Old Royal Naval College","type":"culture"}},{"type":"Feature","geometry":{"type":"Point","coordinates":[-0.29431,51.48356]},"properties":{"level":"parent","id":14,"rank":14,"users":6,"peak":0.594,"prom":0.124,"radius_m":155,"peak_at":[-0.29426,51.48294],"name":"Kew Palace","type":"culture"}},{"type":"Feature","geometry":{"type":"Point","coordinates":[-0.12595,51.53005]},"properties":{"level":"parent","id":15,"rank":15,"users":28,"peak":0.513,"prom":0.236,"radius_m":138,"peak_at":[-0.12528,51.53012],"name":"Restored K6 phone booth","type":"culture"}},{"type":"Feature","geometry":{"type":"Point","coordinates":[-0.27883,51.48409]},"properties":{"level":"parent","id":16,"rank":16,"users":5,"peak":0.45,"prom":0.294,"radius_m":120,"peak_at":[-0.27875,51.4847],"name":"Kew Railway Bridge","type":"culture"}},{"type":"Feature","geometry":{"type":"Point","coordinates":[-0.12934,51.51578]},"properties":{"level":"parent","id":17,"rank":17,"users":42,"peak":0.584,"prom":0.06,"radius_m":155,"peak_at":[-0.12984,51.51607],"name":"St Giles","type":"nightlife"}},{"type":"Feature","geometry":{"type":"Point","coordinates":[-0.09295,51.51918]},"properties":{"level":"parent","id":18,"rank":18,"users":23,"peak":0.525,"prom":0.112,"radius_m":170,"peak_at":[-0.09296,51.51935],"name":"Barbican","type":"culture"}},{"type":"Feature","geometry":{"type":"Point","coordinates":[-0.07434,51.51911]},"properties":{"level":"parent","id":19,"rank":19,"users":14,"peak":0.459,"prom":0.148,"radius_m":120,"peak_at":[-0.0747,51.51913],"name":"Spitalfields","type":"food"}},{"type":"Feature","geometry":{"type":"Point","coordinates":[-0.14154,51.4966]},"properties":{"level":"parent","id":20,"rank":20,"users":6,"peak":0.423,"prom":0.174,"radius_m":120,"peak_at":[-0.14154,51.4966],"name":"Victoria","type":"nightlife"}},{"type":"Feature","geometry":{"type":"Point","coordinates":[-0.20548,51.52371]},"properties":{"level":"parent","id":21,"rank":21,"users":5,"peak":0.416,"prom":0.178,"radius_m":120,"peak_at":[-0.20548,51.52371],"name":"Emmanuel Parish Church","type":"culture"}},{"type":"Feature","geometry":{"type":"Point","coordinates":[-0.12652,51.51903]},"properties":{"level":"parent","id":22,"rank":22,"users":57,"peak":0.524,"prom":0.0,"radius_m":138,"peak_at":[-0.12707,51.51926],"name":"British Museum","type":"culture"}},{"type":"Feature","geometry":{"type":"Point","coordinates":[-0.12249,51.51255]},"properties":{"level":"parent","id":23,"rank":23,"users":16,"peak":0.48,"prom":0.024,"radius_m":120,"peak_at":[-0.12157,51.51214],"name":"London Transport Museum","type":"culture"}},{"type":"Feature","geometry":{"type":"Point","coordinates":[-0.11073,51.51331]},"properties":{"level":"parent","id":24,"rank":24,"users":15,"peak":0.465,"prom":0.028,"radius_m":120,"peak_at":[-0.11017,51.51323],"name":"Temple Church","type":"culture"}},{"type":"Feature","geometry":{"type":"Point","coordinates":[-0.13813,51.52174]},"properties":{"level":"parent","id":25,"rank":25,"users":6,"peak":0.409,"prom":0.101,"radius_m":120,"peak_at":[-0.13813,51.52174],"name":"BT Tower","type":"culture"}},{"type":"Feature","geometry":{"type":"Point","coordinates":[-0.17728,51.50105]},"properties":{"level":"parent","id":26,"rank":26,"users":12,"peak":0.465,"prom":0.0,"radius_m":120,"peak_at":[-0.17742,51.50125],"name":"Royal Albert Hall","type":"culture"}},{"type":"Feature","geometry":{"type":"Point","coordinates":[-0.0771,51.5068]},"properties":{"level":"child","parent":2,"users":326,"peak":1.0,"prom":0.352,"radius_m":294,"peak_at":[-0.07649,51.5076],"name":"Coldharbour Gate","type":"culture"}},{"type":"Feature","geometry":{"type":"Point","coordinates":[-0.09861,51.5135]},"properties":{"level":"child","parent":2,"users":174,"peak":0.94,"prom":0.065,"radius_m":170,"peak_at":[-0.09853,51.51342],"name":"St Paul's Cathedral","type":"culture"}},{"type":"Feature","geometry":{"type":"Point","coordinates":[-0.09872,51.50883]},"properties":{"level":"child","parent":2,"users":195,"peak":0.911,"prom":0.0,"radius_m":170,"peak_at":[-0.09887,51.5083],"name":"Tate Modern","type":"culture"}},{"type":"Feature","geometry":{"type":"Point","coordinates":[-0.08173,51.51421]},"properties":{"level":"child","parent":2,"users":92,"peak":0.851,"prom":0.261,"radius_m":170,"peak_at":[-0.08198,51.51412],"name":"St Helen's Bishopsgate","type":"culture"}},{"type":"Feature","geometry":{"type":"Point","coordinates":[-0.08877,51.50603]},"properties":{"level":"child","parent":2,"users":46,"peak":0.731,"prom":0.04,"radius_m":120,"peak_at":[-0.08868,51.50643],"name":"Old Operating Theatre Museum","type":"culture"}},{"type":"Feature","geometry":{"type":"Point","coordinates":[-0.08657,51.50967]},"properties":{"level":"child","parent":2,"users":51,"peak":0.728,"prom":0.0,"radius_m":120,"peak_at":[-0.08601,51.51017],"name":"The Monument to the Great Fire of London","type":"culture"}},{"type":"Feature","geometry":{"type":"Point","coordinates":[-0.12559,51.50028]},"properties":{"level":"child","parent":1,"users":189,"peak":0.988,"prom":0.372,"radius_m":240,"peak_at":[-0.12612,51.50007],"name":"Westminster Hall","type":"culture"}},{"type":"Feature","geometry":{"type":"Point","coordinates":[-0.11886,51.50613]},"properties":{"level":"child","parent":1,"users":117,"peak":0.761,"prom":0.206,"radius_m":196,"peak_at":[-0.1199,51.50615],"name":"Hungerford Bridge","type":"culture"}},{"type":"Feature","geometry":{"type":"Point","coordinates":[-0.12823,51.50815]},"properties":{"level":"child","parent":1,"users":75,"peak":0.759,"prom":0.208,"radius_m":138,"peak_at":[-0.12794,51.50792],"name":"Nelson's Column","type":"culture"}},{"type":"Feature","geometry":{"type":"Point","coordinates":[-0.17471,51.49661]},"properties":{"level":"child","parent":3,"users":42,"peak":0.844,"prom":0.44,"radius_m":170,"peak_at":[-0.17428,51.49601],"name":"Natural History Museum","type":"culture"}},{"type":"Feature","geometry":{"type":"Point","coordinates":[-0.14557,51.54129]},"properties":{"level":"child","parent":5,"users":10,"peak":0.723,"prom":0.356,"radius_m":120,"peak_at":[-0.14557,51.54129],"name":"Camden Lock Market","type":"culture"}}]}