{"type":"FeatureCollection","features":[{"type":"Feature","geometry":{"type":"Point","coordinates":[-0.29431,51.47939]},"properties":{"level":"parent","id":0,"rank":0,"users":92,"peak":0.964,"prom":0.665,"radius_m":454,"peak_at":[-0.29278,51.47916],"name":"King William's Temple","type":"culture"}},{"type":"Feature","geometry":{"type":"Point","coordinates":[-0.00487,51.48115]},"properties":{"level":"parent","id":1,"rank":1,"users":70,"peak":0.885,"prom":0.582,"radius_m":438,"peak_at":[-0.00177,51.47795],"name":"Royal Observatory Greenwich","type":"culture"}},{"type":"Feature","geometry":{"type":"Point","coordinates":[-0.13473,51.50369]},"properties":{"level":"parent","id":2,"rank":2,"users":205,"peak":1.0,"prom":0.156,"radius_m":474,"peak_at":[-0.13546,51.50246],"name":"St. James's Park","type":"culture"}},{"type":"Feature","geometry":{"type":"Point","coordinates":[-0.08876,51.56159]},"properties":{"level":"parent","id":3,"rank":3,"users":12,"peak":0.755,"prom":0.519,"radius_m":196,"peak_at":[-0.08903,51.56184],"name":"Clissold Park","type":"nature"}},{"type":"Feature","geometry":{"type":"Point","coordinates":[-0.10761,51.44987]},"properties":{"level":"parent","id":4,"rank":4,"users":5,"peak":0.724,"prom":0.555,"radius_m":250,"peak_at":[-0.10776,51.44933],"name":"Brockwell Park","type":"nature"}},{"type":"Feature","geometry":{"type":"Point","coordinates":[-0.08955,51.5079]},"properties":{"level":"parent","id":5,"rank":5,"users":317,"peak":0.953,"prom":0.19,"radius_m":709,"peak_at":[-0.07546,51.50547],"name":"Butler's Wharf","type":"nightlife"}},{"type":"Feature","geometry":{"type":"Point","coordinates":[-0.23217,51.48925]},"properties":{"level":"parent","id":6,"rank":6,"users":15,"peak":0.718,"prom":0.515,"radius_m":259,"peak_at":[-0.23082,51.48949],"name":"Hammersmith Bridge","type":"culture"}},{"type":"Feature","geometry":{"type":"Point","coordinates":[0.03366,51.5006]},"properties":{"level":"parent","id":7,"rank":7,"users":11,"peak":0.731,"prom":0.468,"radius_m":183,"peak_at":[0.03429,51.50002],"name":"Thames Barrier Park","type":"nature"}},{"type":"Feature","geometry":{"type":"Point","coordinates":[-0.12122,51.50595]},"properties":{"level":"parent","id":8,"rank":8,"users":315,"peak":0.932,"prom":0.135,"radius_m":619,"peak_at":[-0.11883,51.50456],"name":"South Bank","type":"culture"}},{"type":"Feature","geometry":{"type":"Point","coordinates":[-0.06166,51.44114]},"properties":{"level":"parent","id":9,"rank":9,"users":8,"peak":0.712,"prom":0.452,"radius_m":138,"peak_at":[-0.06128,51.44184],"name":"Horniman Museum and Gardens","type":"culture"}},{"type":"Feature","geometry":{"type":"Point","coordinates":[-0.04246,51.53521]},"properties":{"level":"parent","id":10,"rank":10,"users":23,"peak":0.704,"prom":0.425,"radius_m":391,"peak_at":[-0.04489,51.53342],"name":"Bonner Hall Bridge","type":"culture"}},{"type":"Feature","geometry":{"type":"Point","coordinates":[-0.23413,51.47784]},"properties":{"level":"parent","id":11,"rank":11,"users":8,"peak":0.615,"prom":0.468,"radius_m":230,"peak_at":[-0.23346,51.48013],"name":"St. Osmunds","type":"culture"}},{"type":"Feature","geometry":{"type":"Point","coordinates":[-0.162,51.5634]},"properties":{"level":"parent","id":12,"rank":12,"users":21,"peak":0.717,"prom":0.307,"radius_m":404,"peak_at":[-0.16368,51.56423],"name":"Hampstead Heath","type":"nature"}},{"type":"Feature","geometry":{"type":"Point","coordinates":[-0.17505,51.49657]},"properties":{"level":"parent","id":13,"rank":13,"users":15,"peak":0.611,"prom":0.45,"radius_m":183,"peak_at":[-0.1744,51.49595],"name":"Natural History Museum","type":"culture"}},{"type":"Feature","geometry":{"type":"Point","coordinates":[-0.06025,51.54276]},"properties":{"level":"parent","id":14,"rank":14,"users":3,"peak":0.596,"prom":0.439,"radius_m":170,"peak_at":[-0.05972,51.5425],"name":"London Fields","type":"nature"}},{"type":"Feature","geometry":{"type":"Point","coordinates":[-0.15917,51.48004]},"properties":{"level":"parent","id":15,"rank":15,"users":9,"peak":0.73,"prom":0.215,"radius_m":170,"peak_at":[-0.15922,51.48059],"name":"Battersea Park Children's Zoo","type":"culture"}},{"type":"Feature","geometry":{"type":"Point","coordinates":[0.07579,51.42727]},"properties":{"level":"parent","id":16,"rank":16,"users":1,"peak":0.567,"prom":0.454,"radius_m":155,"peak_at":[0.07538,51.42665],"name":"Belmont Lane Open Space","type":"nature"}},{"type":"Feature","geometry":{"type":"Point","coordinates":[-0.0193,51.50413]},"properties":{"level":"parent","id":17,"rank":17,"users":9,"peak":0.578,"prom":0.416,"radius_m":170,"peak_at":[-0.01925,51.50327],"name":"Canary Wharf","type":"food"}},{"type":"Feature","geometry":{"type":"Point","coordinates":[-0.07717,51.56382]},"properties":{"level":"parent","id":18,"rank":18,"users":4,"peak":0.563,"prom":0.406,"radius_m":196,"peak_at":[-0.07729,51.56341],"name":"Levy Memorial Ground","type":"nightlife"}},{"type":"Feature","geometry":{"type":"Point","coordinates":[0.03875,51.49506]},"properties":{"level":"parent","id":19,"rank":19,"users":7,"peak":0.609,"prom":0.333,"radius_m":138,"peak_at":[0.03894,51.49481],"name":"The Thames Barrier","type":"culture"}},{"type":"Feature","geometry":{"type":"Point","coordinates":[-0.1849,51.59416]},"properties":{"level":"parent","id":20,"rank":20,"users":2,"peak":0.49,"prom":0.49,"radius_m":120,"peak_at":[-0.18454,51.59422],"name":"Marie Curie Cancer Care Garden of Hope","type":"nature"}},{"type":"Feature","geometry":{"type":"Point","coordinates":[-0.16581,51.57164]},"properties":{"level":"parent","id":21,"rank":21,"users":6,"peak":0.573,"prom":0.362,"radius_m":183,"peak_at":[-0.16499,51.57191],"name":"Kenwood House","type":"culture"}},{"type":"Feature","geometry":{"type":"Point","coordinates":[-0.19853,51.42221]},"properties":{"level":"parent","id":22,"rank":22,"users":3,"peak":0.47,"prom":0.47,"radius_m":138,"peak_at":[-0.19782,51.4217],"name":"South Park Gardens","type":"nature"}},{"type":"Feature","geometry":{"type":"Point","coordinates":[-0.20431,51.5025]},"properties":{"level":"parent","id":23,"rank":23,"users":10,"peak":0.523,"prom":0.369,"radius_m":138,"peak_at":[-0.20409,51.50296],"name":"Kyoto Garden","type":"culture"}},{"type":"Feature","geometry":{"type":"Point","coordinates":[-0.01933,51.55135]},"properties":{"level":"parent","id":24,"rank":24,"users":1,"peak":0.528,"prom":0.352,"radius_m":208,"peak_at":[-0.01884,51.55171],"name":"Temple Mills Bridge","type":"culture"}},{"type":"Feature","geometry":{"type":"Point","coordinates":[-0.21355,51.4671]},"properties":{"level":"parent","id":25,"rank":25,"users":10,"peak":0.572,"prom":0.264,"radius_m":208,"peak_at":[-0.21367,51.46651],"name":"Putney Bridge","type":"culture"}},{"type":"Feature","geometry":{"type":"Point","coordinates":[0.06929,51.57077]},"properties":{"level":"parent","id":26,"rank":26,"users":2,"peak":0.47,"prom":0.353,"radius_m":138,"peak_at":[0.06903,51.57063],"name":"Valentines Park","type":"nature"}},{"type":"Feature","geometry":{"type":"Point","coordinates":[-0.16816,51.50565]},"properties":{"level":"parent","id":27,"rank":27,"users":109,"peak":0.581,"prom":0.167,"radius_m":499,"peak_at":[-0.17207,51.50597],"name":"Serpentine North","type":"culture"}},{"type":"Feature","geometry":{"type":"Point","coordinates":[-0.15269,51.53522]},"properties":{"level":"parent","id":28,"rank":28,"users":16,"peak":0.506,"prom":0.225,"radius_m":196,"peak_at":[-0.1536,51.5354],"name":"London Zoo","type":"culture"}},{"type":"Feature","geometry":{"type":"Point","coordinates":[-0.16751,51.48234]},"properties":{"level":"parent","id":29,"rank":29,"users":8,"peak":0.555,"prom":0.136,"radius_m":138,"peak_at":[-0.16697,51.48272],"name":"Albert Bridge","type":"culture"}},{"type":"Feature","geometry":{"type":"Point","coordinates":[-0.18423,51.50603]},"properties":{"level":"parent","id":30,"rank":30,"users":20,"peak":0.534,"prom":0.153,"radius_m":183,"peak_at":[-0.18471,51.50575],"name":"Queen Victoria","type":"culture"}},{"type":"Feature","geometry":{"type":"Point","coordinates":[-0.27405,51.4428]},"properties":{"level":"parent","id":31,"rank":31,"users":9,"peak":0.469,"prom":0.201,"radius_m":170,"peak_at":[-0.27356,51.44269],"name":"Pen Ponds, Richmond Park","type":"nature"}},{"type":"Feature","geometry":{"type":"Point","coordinates":[-0.14416,51.59277]},"properties":{"level":"parent","id":32,"rank":32,"users":1,"peak":0.353,"prom":0.353,"radius_m":120,"peak_at":[-0.14412,51.59286],"name":"Muswell Hill","type":"food"}},{"type":"Feature","geometry":{"type":"Point","coordinates":[-0.01371,51.59021]},"properties":{"level":"parent","id":33,"rank":33,"users":1,"peak":0.353,"prom":0.353,"radius_m":120,"peak_at":[-0.014,51.59016],"name":"War Memorial, Waltham Forest Town Hall","type":"culture"}},{"type":"Feature","geometry":{"type":"Point","coordinates":[-0.15731,51.5253]},"properties":{"level":"parent","id":34,"rank":34,"users":13,"peak":0.512,"prom":0.026,"radius_m":155,"peak_at":[-0.15751,51.52526],"name":"Sherlock Holmes Museum","type":"culture"}},{"type":"Feature","geometry":{"type":"Point","coordinates":[-0.12623,51.52169]},"properties":{"level":"parent","id":35,"rank":35,"users":13,"peak":0.449,"prom":0.114,"radius_m":120,"peak_at":[-0.12615,51.52114],"name":"Russell Square","type":"nature"}},{"type":"Feature","geometry":{"type":"Point","coordinates":[-0.12605,51.48725]},"properties":{"level":"parent","id":36,"rank":36,"users":8,"peak":0.388,"prom":0.148,"radius_m":120,"peak_at":[-0.1267,51.48738],"name":"Vauxhall Bridge","type":"culture"}},{"type":"Feature","geometry":{"type":"Point","coordinates":[-0.15318,51.5279]},"properties":{"level":"parent","id":37,"rank":37,"users":15,"peak":0.486,"prom":0.0,"radius_m":155,"peak_at":[-0.15374,51.52794],"name":"Queen Mary's Gardens","type":"nature"}},{"type":"Feature","geometry":{"type":"Point","coordinates":[-0.16087,51.53965]},"properties":{"level":"parent","id":38,"rank":38,"users":5,"peak":0.403,"prom":0.122,"radius_m":120,"peak_at":[-0.16087,51.53965],"name":"Primrose Hill","type":"nature"}},{"type":"Feature","geometry":{"type":"Point","coordinates":[-0.14747,51.52624]},"properties":{"level":"parent","id":39,"rank":39,"users":8,"peak":0.43,"prom":0.0,"radius_m":138,"peak_at":[-0.1476,51.52593],"name":"Park Square Gardens","type":"nature"}},{"type":"Feature","geometry":{"type":"Point","coordinates":[-0.07669,51.50612]},"properties":{"level":"child","parent":5,"users":117,"peak":0.953,"prom":0.432,"radius_m":285,"peak_at":[-0.07546,51.50547],"name":"Tower Bridge","type":"culture"}},{"type":"Feature","geometry":{"type":"Point","coordinates":[-0.09864,51.50883]},"properties":{"level":"child","parent":5,"users":96,"peak":0.926,"prom":0.354,"radius_m":183,"peak_at":[-0.09901,51.50827],"name":"Tate Modern","type":"culture"}},{"type":"Feature","geometry":{"type":"Point","coordinates":[-0.08734,51.50821]},"properties":{"level":"child","parent":5,"users":25,"peak":0.671,"prom":0.076,"radius_m":138,"peak_at":[-0.08794,51.50736],"name":"London Bridge","type":"culture"}},{"type":"Feature","geometry":{"type":"Point","coordinates":[-0.04565,51.53298]},"properties":{"level":"child","parent":10,"users":5,"peak":0.704,"prom":0.176,"radius_m":120,"peak_at":[-0.04489,51.53342],"name":"Pagoda","type":"culture"}},{"type":"Feature","geometry":{"type":"Point","coordinates":[-0.03854,51.53719]},"properties":{"level":"child","parent":10,"users":5,"peak":0.704,"prom":0.176,"radius_m":155,"peak_at":[-0.0397,51.53709],"name":"Burdett-Coutts Memorial","type":"culture"}},{"type":"Feature","geometry":{"type":"Point","coordinates":[-0.10772,51.45003]},"properties":{"level":"child","parent":4,"users":3,"peak":0.724,"prom":0.387,"radius_m":155,"peak_at":[-0.10776,51.44933],"name":"Brockwell Park","type":"nature"}},{"type":"Feature","geometry":{"type":"Point","coordinates":[-0.11993,51.50441]},"properties":{"level":"child","parent":8,"users":219,"peak":0.932,"prom":0.269,"radius_m":353,"peak_at":[-0.11883,51.50456],"name":"London Eye","type":"culture"}},{"type":"Feature","geometry":{"type":"Point","coordinates":[-0.12344,51.51245]},"properties":{"level":"child","parent":8,"users":34,"peak":0.727,"prom":0.058,"radius_m":120,"peak_at":[-0.12315,51.51237],"name":"Covent Garden Market","type":"culture"}},{"type":"Feature","geometry":{"type":"Point","coordinates":[-0.13481,51.50269]},"properties":{"level":"child","parent":2,"users":127,"peak":1.0,"prom":0.353,"radius_m":294,"peak_at":[-0.13546,51.50246],"name":"Blue Bridge","type":"culture"}},{"type":"Feature","geometry":{"type":"Point","coordinates":[-0.12802,51.50769]},"properties":{"level":"child","parent":2,"users":17,"peak":0.647,"prom":0.0,"radius_m":120,"peak_at":[-0.12806,51.50752],"name":"Nelson's Column","type":"culture"}},{"type":"Feature","geometry":{"type":"Point","coordinates":[-0.16302,51.56416]},"properties":{"level":"child","parent":12,"users":3,"peak":0.717,"prom":0.082,"radius_m":120,"peak_at":[-0.16368,51.56423],"name":"Hampstead Heath","type":"nature"}},{"type":"Feature","geometry":{"type":"Point","coordinates":[-0.15969,51.55979]},"properties":{"level":"child","parent":12,"users":4,"peak":0.703,"prom":0.116,"radius_m":120,"peak_at":[-0.16001,51.55969],"name":"Parliament Hill","type":"culture"}},{"type":"Feature","geometry":{"type":"Point","coordinates":[-0.00158,51.47819]},"properties":{"level":"child","parent":1,"users":30,"peak":0.885,"prom":0.42,"radius_m":155,"peak_at":[-0.00177,51.47795],"name":"Greenwich Meridian","type":"culture"}},{"type":"Feature","geometry":{"type":"Point","coordinates":[-0.00921,51.48348]},"properties":{"level":"child","parent":1,"users":21,"peak":0.821,"prom":0.224,"radius_m":155,"peak_at":[-0.01004,51.48367],"name":"Cutty Sark","type":"culture"}},{"type":"Feature","geometry":{"type":"Point","coordinates":[-0.06128,51.44184]},"properties":{"level":"child","parent":9,"users":4,"peak":0.712,"prom":0.452,"radius_m":120,"peak_at":[-0.06128,51.44184],"name":"Horniman Museum and Gardens","type":"culture"}},{"type":"Feature","geometry":{"type":"Point","coordinates":[-0.08885,51.56125]},"properties":{"level":"child","parent":3,"users":7,"peak":0.755,"prom":0.441,"radius_m":120,"peak_at":[-0.08903,51.56184],"name":"Clissold Park","type":"nature"}},{"type":"Feature","geometry":{"type":"Point","coordinates":[0.03898,51.495]},"properties":{"level":"child","parent":19,"users":4,"peak":0.609,"prom":0.333,"radius_m":120,"peak_at":[0.03902,51.49519],"name":"The Thames Barrier","type":"culture"}},{"type":"Feature","geometry":{"type":"Point","coordinates":[-0.23083,51.48928]},"properties":{"level":"child","parent":6,"users":9,"peak":0.718,"prom":0.278,"radius_m":138,"peak_at":[-0.23082,51.48949],"name":"Hammersmith Bridge","type":"culture"}},{"type":"Feature","geometry":{"type":"Point","coordinates":[-0.1744,51.49595]},"properties":{"level":"child","parent":13,"users":4,"peak":0.611,"prom":0.229,"radius_m":120,"peak_at":[-0.1744,51.49595],"name":"Natural History Museum","type":"culture"}},{"type":"Feature","geometry":{"type":"Point","coordinates":[0.03397,51.50055]},"properties":{"level":"child","parent":7,"users":6,"peak":0.731,"prom":0.399,"radius_m":120,"peak_at":[0.03429,51.50002],"name":"Thames Barrier Park","type":"nature"}}]}