{"type":"FeatureCollection","features":[{"type":"Feature","geometry":{"type":"Point","coordinates":[-0.27956,51.55563]},"properties":{"level":"parent","id":0,"rank":0,"users":31,"peak":1.0,"prom":0.835,"radius_m":240,"peak_at":[-0.27805,51.55488],"name":"Wembley Stadium","type":"culture"}},{"type":"Feature","geometry":{"type":"Point","coordinates":[-0.22487,51.50316]},"properties":{"level":"parent","id":1,"rank":1,"users":11,"peak":0.938,"prom":0.551,"radius_m":183,"peak_at":[-0.22523,51.50298],"name":"Goldhawk Road","type":"nightlife"}},{"type":"Feature","geometry":{"type":"Point","coordinates":[-0.15856,51.50803]},"properties":{"level":"parent","id":2,"rank":2,"users":15,"peak":0.873,"prom":0.498,"radius_m":183,"peak_at":[-0.15814,51.50756],"name":"The Parade Ground","type":"nature"}},{"type":"Feature","geometry":{"type":"Point","coordinates":[-0.19539,51.50163]},"properties":{"level":"parent","id":3,"rank":3,"users":7,"peak":0.722,"prom":0.6,"radius_m":155,"peak_at":[-0.1947,51.50185],"name":"Sambourne House","type":"culture"}},{"type":"Feature","geometry":{"type":"Point","coordinates":[-0.10236,51.54514]},"properties":{"level":"parent","id":4,"rank":4,"users":17,"peak":0.657,"prom":0.629,"radius_m":196,"peak_at":[-0.10254,51.54478],"name":"Union Chapel","type":"culture"}},{"type":"Feature","geometry":{"type":"Point","coordinates":[-0.00917,51.4856]},"properties":{"level":"parent","id":5,"rank":5,"users":11,"peak":0.704,"prom":0.481,"radius_m":155,"peak_at":[-0.00914,51.48582],"name":"Island Gardens","type":"nature"}},{"type":"Feature","geometry":{"type":"Point","coordinates":[-0.04749,51.49341]},"properties":{"level":"parent","id":6,"rank":6,"users":4,"peak":0.597,"prom":0.503,"radius_m":138,"peak_at":[-0.04813,51.49359],"name":"Surrey Quays","type":"food"}},{"type":"Feature","geometry":{"type":"Point","coordinates":[-0.07777,51.52548]},"properties":{"level":"parent","id":7,"rank":7,"users":64,"peak":0.669,"prom":0.361,"radius_m":379,"peak_at":[-0.08384,51.52639],"name":"Charles Square","type":"nature"}},{"type":"Feature","geometry":{"type":"Point","coordinates":[-0.01761,51.52858]},"properties":{"level":"parent","id":8,"rank":8,"users":4,"peak":0.562,"prom":0.511,"radius_m":155,"peak_at":[-0.01711,51.52886],"name":"St Mary's Church","type":"culture"}},{"type":"Feature","geometry":{"type":"Point","coordinates":[-0.1375,51.53499]},"properties":{"level":"parent","id":9,"rank":9,"users":12,"peak":0.702,"prom":0.295,"radius_m":183,"peak_at":[-0.13818,51.53476],"name":"Mornington Crescent","type":"food"}},{"type":"Feature","geometry":{"type":"Point","coordinates":[-0.17545,51.49867]},"properties":{"level":"parent","id":10,"rank":10,"users":75,"peak":0.582,"prom":0.39,"radius_m":277,"peak_at":[-0.17942,51.49921],"name":"Beit Quadrangle","type":"culture"}},{"type":"Feature","geometry":{"type":"Point","coordinates":[-0.17101,51.51408]},"properties":{"level":"parent","id":11,"rank":11,"users":5,"peak":0.562,"prom":0.334,"radius_m":120,"peak_at":[-0.17142,51.51353],"name":"Gloucester Square","type":"nature"}},{"type":"Feature","geometry":{"type":"Point","coordinates":[-0.2187,51.50576]},"properties":{"level":"parent","id":12,"rank":12,"users":6,"peak":0.619,"prom":0.208,"radius_m":120,"peak_at":[-0.2178,51.50524],"name":"Shepherd's Bush","type":"food"}},{"type":"Feature","geometry":{"type":"Point","coordinates":[-0.26922,51.50703]},"properties":{"level":"parent","id":13,"rank":13,"users":3,"peak":0.5,"prom":0.385,"radius_m":155,"peak_at":[-0.26944,51.50689],"name":"Our Lady of Lourdes","type":"culture"}},{"type":"Feature","geometry":{"type":"Point","coordinates":[-0.02288,51.53756]},"properties":{"level":"parent","id":14,"rank":14,"users":4,"peak":0.465,"prom":0.385,"radius_m":120,"peak_at":[-0.0236,51.53766],"name":"Fish Island","type":"culture"}},{"type":"Feature","geometry":{"type":"Point","coordinates":[-0.05935,51.54925]},"properties":{"level":"parent","id":15,"rank":15,"users":7,"peak":0.688,"prom":0.031,"radius_m":138,"peak_at":[-0.05927,51.54931],"name":"Banner Repeater","type":"culture"}},{"type":"Feature","geometry":{"type":"Point","coordinates":[-0.00261,51.44836]},"properties":{"level":"parent","id":16,"rank":16,"users":4,"peak":0.438,"prom":0.404,"radius_m":120,"peak_at":[-0.00181,51.44826],"name":"Hither Green Clocktower","type":"culture"}},{"type":"Feature","geometry":{"type":"Point","coordinates":[-0.1143,51.46112]},"properties":{"level":"parent","id":17,"rank":17,"users":7,"peak":0.556,"prom":0.221,"radius_m":120,"peak_at":[-0.11531,51.46095],"name":"Black Cultural Archive","type":"culture"}},{"type":"Feature","geometry":{"type":"Point","coordinates":[-0.12185,51.45212]},"properties":{"level":"parent","id":18,"rank":18,"users":3,"peak":0.438,"prom":0.386,"radius_m":120,"peak_at":[-0.12185,51.45212],"name":"The Brixton Windmill","type":"culture"}},{"type":"Feature","geometry":{"type":"Point","coordinates":[-0.05441,51.54685]},"properties":{"level":"parent","id":19,"rank":19,"users":9,"peak":0.657,"prom":0.0,"radius_m":170,"peak_at":[-0.05394,51.54664],"name":"Tower of Church of St Augustine","type":"culture"}},{"type":"Feature","geometry":{"type":"Point","coordinates":[-0.15936,51.48734]},"properties":{"level":"parent","id":20,"rank":20,"users":6,"peak":0.42,"prom":0.337,"radius_m":120,"peak_at":[-0.15803,51.48727],"name":"The Royal Hospital Chelsea","type":"culture"}},{"type":"Feature","geometry":{"type":"Point","coordinates":[-0.22549,51.51011]},"properties":{"level":"parent","id":21,"rank":21,"users":11,"peak":0.451,"prom":0.286,"radius_m":120,"peak_at":[-0.22596,51.5099],"name":"Hammersmith Park","type":"nature"}},{"type":"Feature","geometry":{"type":"Point","coordinates":[-0.01895,51.50203]},"properties":{"level":"parent","id":22,"rank":22,"users":9,"peak":0.489,"prom":0.202,"radius_m":155,"peak_at":[-0.01948,51.50183],"name":"Heron Quays","type":"food"}},{"type":"Feature","geometry":{"type":"Point","coordinates":[-0.1324,51.50093]},"properties":{"level":"parent","id":23,"rank":23,"users":6,"peak":0.408,"prom":0.303,"radius_m":120,"peak_at":[-0.13175,51.50104],"name":"Churchill War Rooms","type":"culture"}},{"type":"Feature","geometry":{"type":"Point","coordinates":[-0.15218,51.44326]},"properties":{"level":"parent","id":24,"rank":24,"users":4,"peak":0.368,"prom":0.351,"radius_m":120,"peak_at":[-0.15228,51.4435],"name":"Balham","type":"nightlife"}},{"type":"Feature","geometry":{"type":"Point","coordinates":[-0.19865,51.51134]},"properties":{"level":"parent","id":25,"rank":25,"users":6,"peak":0.382,"prom":0.312,"radius_m":120,"peak_at":[-0.19865,51.51134],"name":"Kensington Temple","type":"culture"}},{"type":"Feature","geometry":{"type":"Point","coordinates":[-0.12135,51.49817]},"properties":{"level":"parent","id":26,"rank":26,"users":7,"peak":0.472,"prom":0.154,"radius_m":120,"peak_at":[-0.12254,51.49786],"name":"Palace of Westminster","type":"culture"}},{"type":"Feature","geometry":{"type":"Point","coordinates":[-0.0498,51.50862]},"properties":{"level":"parent","id":27,"rank":27,"users":6,"peak":0.438,"prom":0.198,"radius_m":120,"peak_at":[-0.05106,51.50934],"name":"St Paul's Shadwell","type":"culture"}},{"type":"Feature","geometry":{"type":"Point","coordinates":[-0.12186,51.53385]},"properties":{"level":"parent","id":28,"rank":28,"users":14,"peak":0.426,"prom":0.211,"radius_m":155,"peak_at":[-0.12171,51.53393],"name":"London Canal Museum","type":"culture"}},{"type":"Feature","geometry":{"type":"Point","coordinates":[-0.15172,51.54331]},"properties":{"level":"parent","id":29,"rank":29,"users":9,"peak":0.362,"prom":0.285,"radius_m":120,"peak_at":[-0.15172,51.54331],"name":"Chalk Farm","type":"nightlife"}},{"type":"Feature","geometry":{"type":"Point","coordinates":[0.00286,51.50227]},"properties":{"level":"parent","id":30,"rank":30,"users":12,"peak":0.366,"prom":0.234,"radius_m":138,"peak_at":[0.00376,51.50174],"name":"The O2","type":"nightlife"}},{"type":"Feature","geometry":{"type":"Point","coordinates":[-0.10244,51.51]},"properties":{"level":"parent","id":31,"rank":31,"users":12,"peak":0.388,"prom":0.159,"radius_m":138,"peak_at":[-0.1025,51.51095],"name":"Blackfriars Railway Bridge","type":"culture"}},{"type":"Feature","geometry":{"type":"Point","coordinates":[-0.12077,51.5131]},"properties":{"level":"parent","id":32,"rank":32,"users":31,"peak":0.408,"prom":0.124,"radius_m":155,"peak_at":[-0.12092,51.51288],"name":"London Transport Museum","type":"culture"}},{"type":"Feature","geometry":{"type":"Point","coordinates":[-0.08138,51.5105]},"properties":{"level":"parent","id":33,"rank":33,"users":6,"peak":0.357,"prom":0.195,"radius_m":138,"peak_at":[-0.08119,51.50994],"name":"St Dunstan in the East","type":"culture"}},{"type":"Feature","geometry":{"type":"Point","coordinates":[-0.19754,51.48937]},"properties":{"level":"parent","id":34,"rank":34,"users":6,"peak":0.307,"prom":0.238,"radius_m":120,"peak_at":[-0.19754,51.48937],"name":"Philbeach Gardens","type":"nature"}},{"type":"Feature","geometry":{"type":"Point","coordinates":[-0.09389,51.50762]},"properties":{"level":"parent","id":35,"rank":35,"users":15,"peak":0.416,"prom":0.071,"radius_m":138,"peak_at":[-0.09374,51.50762],"name":"Clink Prison Museum","type":"culture"}},{"type":"Feature","geometry":{"type":"Point","coordinates":[-0.0003,51.47857]},"properties":{"level":"parent","id":36,"rank":36,"users":16,"peak":0.3,"prom":0.244,"radius_m":120,"peak_at":[0.00034,51.47916],"name":"Greenwich Meridian","type":"culture"}},{"type":"Feature","geometry":{"type":"Point","coordinates":[-0.16174,51.53963]},"properties":{"level":"parent","id":37,"rank":37,"users":7,"peak":0.295,"prom":0.2,"radius_m":120,"peak_at":[-0.16201,51.53957],"name":"Primrose Hill","type":"nature"}},{"type":"Feature","geometry":{"type":"Point","coordinates":[-0.14207,51.53891]},"properties":{"level":"parent","id":38,"rank":38,"users":21,"peak":0.406,"prom":0.0,"radius_m":155,"peak_at":[-0.14126,51.53867],"name":"St. Michael's Camden Town","type":"culture"}},{"type":"Feature","geometry":{"type":"Point","coordinates":[-0.1149,51.46542]},"properties":{"level":"parent","id":39,"rank":39,"users":7,"peak":0.335,"prom":0.079,"radius_m":120,"peak_at":[-0.11491,51.46526],"name":"Brixton Mosque","type":"culture"}},{"type":"Feature","geometry":{"type":"Point","coordinates":[-0.08448,51.52632]},"properties":{"level":"child","parent":7,"users":12,"peak":0.669,"prom":0.311,"radius_m":120,"peak_at":[-0.08384,51.52639],"name":"Charles Square","type":"nature"}},{"type":"Feature","geometry":{"type":"Point","coordinates":[-0.07845,51.52776]},"properties":{"level":"child","parent":7,"users":6,"peak":0.514,"prom":0.119,"radius_m":120,"peak_at":[-0.07845,51.52776],"name":"Rivington Place","type":"culture"}},{"type":"Feature","geometry":{"type":"Point","coordinates":[-0.15831,51.50737]},"properties":{"level":"child","parent":2,"users":11,"peak":0.873,"prom":0.498,"radius_m":138,"peak_at":[-0.15814,51.50756],"name":"The Parade Ground","type":"nature"}},{"type":"Feature","geometry":{"type":"Point","coordinates":[-0.05927,51.54931]},"properties":{"level":"child","parent":15,"users":3,"peak":0.688,"prom":0.191,"radius_m":120,"peak_at":[-0.05927,51.54931],"name":"Banner Repeater","type":"culture"}},{"type":"Feature","geometry":{"type":"Point","coordinates":[-0.10254,51.54478]},"properties":{"level":"child","parent":4,"users":8,"peak":0.657,"prom":0.405,"radius_m":120,"peak_at":[-0.10254,51.54478],"name":"Union Chapel","type":"culture"}},{"type":"Feature","geometry":{"type":"Point","coordinates":[-0.2178,51.50524]},"properties":{"level":"child","parent":12,"users":4,"peak":0.619,"prom":0.407,"radius_m":120,"peak_at":[-0.2178,51.50524],"name":"Shepherd's Bush","type":"nightlife"}},{"type":"Feature","geometry":{"type":"Point","coordinates":[-0.05394,51.54664]},"properties":{"level":"child","parent":19,"users":3,"peak":0.657,"prom":0.331,"radius_m":120,"peak_at":[-0.05394,51.54664],"name":"Tower of Church of St Augustine","type":"culture"}},{"type":"Feature","geometry":{"type":"Point","coordinates":[-0.11531,51.46095]},"properties":{"level":"child","parent":17,"users":5,"peak":0.556,"prom":0.3,"radius_m":120,"peak_at":[-0.11531,51.46095],"name":"Black Cultural Archive","type":"culture"}},{"type":"Feature","geometry":{"type":"Point","coordinates":[-0.1773,51.4996]},"properties":{"level":"child","parent":10,"users":12,"peak":0.582,"prom":0.177,"radius_m":138,"peak_at":[-0.17942,51.49921],"name":"Beit Quadrangle","type":"culture"}},{"type":"Feature","geometry":{"type":"Point","coordinates":[-0.13692,51.53473]},"properties":{"level":"child","parent":9,"users":8,"peak":0.702,"prom":0.438,"radius_m":120,"peak_at":[-0.13818,51.53476],"name":"Mornington Crescent","type":"food"}},{"type":"Feature","geometry":{"type":"Point","coordinates":[-0.17142,51.51353]},"properties":{"level":"child","parent":11,"users":3,"peak":0.562,"prom":0.334,"radius_m":120,"peak_at":[-0.17142,51.51353],"name":"Gloucester Square","type":"nature"}},{"type":"Feature","geometry":{"type":"Point","coordinates":[-0.00914,51.48582]},"properties":{"level":"child","parent":5,"users":3,"peak":0.704,"prom":0.53,"radius_m":120,"peak_at":[-0.00914,51.48582],"name":"Island Gardens","type":"nature"}}]}