{"type":"FeatureCollection","features":[{"type":"Feature","geometry":{"type":"Point","coordinates":[-0.28071,51.55645]},"properties":{"level":"parent","id":0,"rank":0,"users":19,"peak":0.938,"prom":0.869,"radius_m":259,"peak_at":[-0.28038,51.55603],"name":"Wembley Stadium"}},{"type":"Feature","geometry":{"type":"Point","coordinates":[0.00308,51.50284]},"properties":{"level":"parent","id":1,"rank":1,"users":20,"peak":0.93,"prom":0.786,"radius_m":196,"peak_at":[0.00317,51.50281],"name":"The O2"}},{"type":"Feature","geometry":{"type":"Point","coordinates":[-0.14445,51.53945]},"properties":{"level":"parent","id":2,"rank":2,"users":55,"peak":0.936,"prom":0.714,"radius_m":438,"peak_at":[-0.14302,51.53987],"name":"The Jewish Museum"}},{"type":"Feature","geometry":{"type":"Point","coordinates":[-0.07844,51.52296]},"properties":{"level":"parent","id":3,"rank":3,"users":73,"peak":0.934,"prom":0.611,"radius_m":545,"peak_at":[-0.08029,51.52645],"name":"Shoreditch"}},{"type":"Feature","geometry":{"type":"Point","coordinates":[-0.22729,51.49094]},"properties":{"level":"parent","id":4,"rank":4,"users":23,"peak":0.87,"prom":0.692,"radius_m":353,"peak_at":[-0.22479,51.49085],"name":"Hammersmith"}},{"type":"Feature","geometry":{"type":"Point","coordinates":[-0.10313,51.54532]},"properties":{"level":"parent","id":5,"rank":5,"users":23,"peak":0.85,"prom":0.709,"radius_m":268,"peak_at":[-0.10309,51.54606],"name":"Highbury"}},{"type":"Feature","geometry":{"type":"Point","coordinates":[-0.12469,51.51169]},"properties":{"level":"parent","id":6,"rank":6,"users":272,"peak":1.0,"prom":0.369,"radius_m":996,"peak_at":[-0.13029,51.5159],"name":"St Giles"}},{"type":"Feature","geometry":{"type":"Point","coordinates":[-0.11482,51.46368]},"properties":{"level":"parent","id":7,"rank":7,"users":17,"peak":0.828,"prom":0.626,"radius_m":302,"peak_at":[-0.11485,51.46564],"name":"Brixton Mosque"}},{"type":"Feature","geometry":{"type":"Point","coordinates":[-0.03617,51.53752]},"properties":{"level":"parent","id":8,"rank":8,"users":12,"peak":0.859,"prom":0.578,"radius_m":277,"peak_at":[-0.03604,51.53782],"name":"Three Colts Bridge"}},{"type":"Feature","geometry":{"type":"Point","coordinates":[-0.2245,51.50364]},"properties":{"level":"parent","id":9,"rank":9,"users":13,"peak":0.845,"prom":0.494,"radius_m":183,"peak_at":[-0.22426,51.50362],"name":"Shepherds Bush Green"}},{"type":"Feature","geometry":{"type":"Point","coordinates":[-0.09991,51.58173]},"properties":{"level":"parent","id":10,"rank":10,"users":5,"peak":0.696,"prom":0.696,"radius_m":240,"peak_at":[-0.09984,51.5824],"name":"Harringay"}},{"type":"Feature","geometry":{"type":"Point","coordinates":[-0.14533,51.46011]},"properties":{"level":"parent","id":11,"rank":11,"users":8,"peak":0.671,"prom":0.57,"radius_m":196,"peak_at":[-0.14527,51.46018],"name":"Charles Barry"}},{"type":"Feature","geometry":{"type":"Point","coordinates":[-0.12202,51.45377]},"properties":{"level":"parent","id":12,"rank":12,"users":6,"peak":0.629,"prom":0.528,"radius_m":155,"peak_at":[-0.12248,51.45402],"name":"The Brixton Windmill"}},{"type":"Feature","geometry":{"type":"Point","coordinates":[-0.29402,51.49714]},"properties":{"level":"parent","id":13,"rank":13,"users":2,"peak":0.696,"prom":0.418,"radius_m":196,"peak_at":[-0.29365,51.49749],"name":"Gunnersbury Park"}},{"type":"Feature","geometry":{"type":"Point","coordinates":[-0.16024,51.50838]},"properties":{"level":"parent","id":14,"rank":14,"users":20,"peak":0.609,"prom":0.507,"radius_m":277,"peak_at":[-0.15919,51.50856],"name":"Animals in War"}},{"type":"Feature","geometry":{"type":"Point","coordinates":[-0.20118,51.54355]},"properties":{"level":"parent","id":15,"rank":15,"users":4,"peak":0.675,"prom":0.384,"radius_m":155,"peak_at":[-0.20061,51.54343],"name":"Kilburn Grange Park"}},{"type":"Feature","geometry":{"type":"Point","coordinates":[-0.13054,51.59402]},"properties":{"level":"parent","id":16,"rank":16,"users":3,"peak":0.557,"prom":0.557,"radius_m":183,"peak_at":[-0.13091,51.5943],"name":"Alexandra Palace"}},{"type":"Feature","geometry":{"type":"Point","coordinates":[-0.27892,51.48405]},"properties":{"level":"parent","id":17,"rank":17,"users":3,"peak":0.557,"prom":0.557,"radius_m":170,"peak_at":[-0.27831,51.48438],"name":"Kew Railway Bridge"}},{"type":"Feature","geometry":{"type":"Point","coordinates":[-0.14175,51.55189]},"properties":{"level":"parent","id":18,"rank":18,"users":9,"peak":0.57,"prom":0.501,"radius_m":170,"peak_at":[-0.14192,51.55211],"name":"Christ Apostolic Church"}},{"type":"Feature","geometry":{"type":"Point","coordinates":[-0.22584,51.5101]},"properties":{"level":"parent","id":19,"rank":19,"users":5,"peak":0.585,"prom":0.404,"radius_m":155,"peak_at":[-0.22615,51.51007],"name":"Hammersmith Park"}},{"type":"Feature","geometry":{"type":"Point","coordinates":[-0.10149,51.45252]},"properties":{"level":"parent","id":20,"rank":20,"users":4,"peak":0.505,"prom":0.505,"radius_m":183,"peak_at":[-0.10085,51.45259],"name":"Herne Hill"}},{"type":"Feature","geometry":{"type":"Point","coordinates":[-0.12207,51.53018]},"properties":{"level":"parent","id":21,"rank":21,"users":28,"peak":0.58,"prom":0.367,"radius_m":302,"peak_at":[-0.12027,51.52985],"name":"King's Cross"}},{"type":"Feature","geometry":{"type":"Point","coordinates":[-0.09876,51.49528]},"properties":{"level":"parent","id":22,"rank":22,"users":14,"peak":0.52,"prom":0.416,"radius_m":196,"peak_at":[-0.09888,51.49488],"name":"Michael Faraday Memorial substation"}},{"type":"Feature","geometry":{"type":"Point","coordinates":[-0.09297,51.50664]},"properties":{"level":"parent","id":23,"rank":23,"users":39,"peak":0.66,"prom":0.191,"radius_m":360,"peak_at":[-0.08996,51.50575],"name":"Old Operating Theatre Museum"}},{"type":"Feature","geometry":{"type":"Point","coordinates":[-0.03749,51.45458]},"properties":{"level":"parent","id":24,"rank":24,"users":3,"peak":0.461,"prom":0.461,"radius_m":138,"peak_at":[-0.03704,51.45539],"name":"Crofton Park"}},{"type":"Feature","geometry":{"type":"Point","coordinates":[-0.22769,51.59125]},"properties":{"level":"parent","id":25,"rank":25,"users":2,"peak":0.461,"prom":0.461,"radius_m":120,"peak_at":[-0.22769,51.59125],"name":"Hendon St Mary"}},{"type":"Feature","geometry":{"type":"Point","coordinates":[-0.28784,51.48901]},"properties":{"level":"parent","id":26,"rank":26,"users":2,"peak":0.441,"prom":0.441,"radius_m":120,"peak_at":[-0.28784,51.48901],"name":"London Museum of Water and Steam"}},{"type":"Feature","geometry":{"type":"Point","coordinates":[-0.10201,51.51995]},"properties":{"level":"parent","id":27,"rank":27,"users":12,"peak":0.631,"prom":0.129,"radius_m":196,"peak_at":[-0.10213,51.51998],"name":"Farringdon"}},{"type":"Feature","geometry":{"type":"Point","coordinates":[-0.10911,51.59688]},"properties":{"level":"parent","id":28,"rank":28,"users":1,"peak":0.418,"prom":0.418,"radius_m":138,"peak_at":[-0.10917,51.59666],"name":"Wood Green"}},{"type":"Feature","geometry":{"type":"Point","coordinates":[-0.1432,51.49624]},"properties":{"level":"parent","id":29,"rank":29,"users":12,"peak":0.45,"prom":0.288,"radius_m":170,"peak_at":[-0.14291,51.49585],"name":"Victoria"}},{"type":"Feature","geometry":{"type":"Point","coordinates":[-0.10611,51.53373]},"properties":{"level":"parent","id":30,"rank":30,"users":9,"peak":0.481,"prom":0.24,"radius_m":138,"peak_at":[-0.10672,51.53414],"name":"Angel"}},{"type":"Feature","geometry":{"type":"Point","coordinates":[-0.17734,51.50119]},"properties":{"level":"parent","id":31,"rank":31,"users":13,"peak":0.523,"prom":0.14,"radius_m":155,"peak_at":[-0.17743,51.50111],"name":"Royal Albert Hall"}},{"type":"Feature","geometry":{"type":"Point","coordinates":[-0.07889,51.50444]},"properties":{"level":"parent","id":32,"rank":32,"users":13,"peak":0.512,"prom":0.144,"radius_m":250,"peak_at":[-0.07769,51.50416],"name":"Potters Fields Park"}},{"type":"Feature","geometry":{"type":"Point","coordinates":[-0.17732,51.46019]},"properties":{"level":"parent","id":33,"rank":33,"users":1,"peak":0.35,"prom":0.35,"radius_m":120,"peak_at":[-0.17805,51.4598],"name":"Saint John's Methodist Church"}},{"type":"Feature","geometry":{"type":"Point","coordinates":[-0.05575,51.50234]},"properties":{"level":"parent","id":34,"rank":34,"users":6,"peak":0.41,"prom":0.22,"radius_m":196,"peak_at":[-0.05365,51.50172],"name":"Brunel Museum"}},{"type":"Feature","geometry":{"type":"Point","coordinates":[-0.00419,51.48449]},"properties":{"level":"parent","id":35,"rank":35,"users":8,"peak":0.501,"prom":0.059,"radius_m":138,"peak_at":[-0.00434,51.48465],"name":"Old Royal Naval College"}},{"type":"Feature","geometry":{"type":"Point","coordinates":[-0.10742,51.52416]},"properties":{"level":"parent","id":36,"rank":36,"users":18,"peak":0.503,"prom":0.0,"radius_m":250,"peak_at":[-0.10534,51.52323],"name":"Clerkenwell"}},{"type":"Feature","geometry":{"type":"Point","coordinates":[-0.19732,51.48982]},"properties":{"level":"parent","id":37,"rank":37,"users":5,"peak":0.441,"prom":0.077,"radius_m":120,"peak_at":[-0.19812,51.49015],"name":"Philbeach Gardens"}},{"type":"Feature","geometry":{"type":"Point","coordinates":[-0.19561,51.50814]},"properties":{"level":"parent","id":38,"rank":38,"users":5,"peak":0.383,"prom":0.153,"radius_m":138,"peak_at":[-0.19593,51.50918],"name":"Notting Hill Gate"}},{"type":"Feature","geometry":{"type":"Point","coordinates":[-0.07673,51.54958]},"properties":{"level":"parent","id":39,"rank":39,"users":6,"peak":0.351,"prom":0.14,"radius_m":208,"peak_at":[-0.07495,51.55179],"name":"Shacklewell Lane Mosque"}},{"type":"Feature","geometry":{"type":"Point","coordinates":[-0.12849,51.5119]},"properties":{"level":"child","parent":6,"users":181,"peak":1.0,"prom":0.423,"radius_m":603,"peak_at":[-0.13029,51.5159],"name":"Paul Stolper"}},{"type":"Feature","geometry":{"type":"Point","coordinates":[-0.11648,51.50608]},"properties":{"level":"child","parent":6,"users":27,"peak":0.757,"prom":0.238,"radius_m":155,"peak_at":[-0.11694,51.506],"name":"Royal Festival Hall"}},{"type":"Feature","geometry":{"type":"Point","coordinates":[-0.11245,51.51354]},"properties":{"level":"child","parent":6,"users":8,"peak":0.574,"prom":0.134,"radius_m":138,"peak_at":[-0.11289,51.51278],"name":"Two Temple Place"}},{"type":"Feature","geometry":{"type":"Point","coordinates":[-0.10534,51.52323]},"properties":{"level":"child","parent":36,"users":3,"peak":0.503,"prom":0.105,"radius_m":120,"peak_at":[-0.10534,51.52323],"name":"St. James's Church"}},{"type":"Feature","geometry":{"type":"Point","coordinates":[-0.22504,51.49137]},"properties":{"level":"child","parent":4,"users":12,"peak":0.87,"prom":0.373,"radius_m":196,"peak_at":[-0.22479,51.49085],"name":"St Paul"}},{"type":"Feature","geometry":{"type":"Point","coordinates":[-0.14259,51.53912]},"properties":{"level":"child","parent":2,"users":19,"peak":0.936,"prom":0.3,"radius_m":196,"peak_at":[-0.14302,51.53987],"name":"Camden Town"}},{"type":"Feature","geometry":{"type":"Point","coordinates":[-0.15007,51.54301]},"properties":{"level":"child","parent":2,"users":18,"peak":0.701,"prom":0.0,"radius_m":155,"peak_at":[-0.14936,51.54317],"name":"Cyberdog"}},{"type":"Feature","geometry":{"type":"Point","coordinates":[-0.13855,51.53485]},"properties":{"level":"child","parent":2,"users":14,"peak":0.635,"prom":0.053,"radius_m":120,"peak_at":[-0.13875,51.53512],"name":"Mornington Crescent"}},{"type":"Feature","geometry":{"type":"Point","coordinates":[-0.09004,51.50518]},"properties":{"level":"child","parent":23,"users":19,"peak":0.66,"prom":0.191,"radius_m":155,"peak_at":[-0.08996,51.50575],"name":"Old Operating Theatre Museum"}},{"type":"Feature","geometry":{"type":"Point","coordinates":[-0.11494,51.46539]},"properties":{"level":"child","parent":7,"users":11,"peak":0.828,"prom":0.407,"radius_m":138,"peak_at":[-0.11485,51.46564],"name":"Brixton Mosque"}},{"type":"Feature","geometry":{"type":"Point","coordinates":[-0.11624,51.45984]},"properties":{"level":"child","parent":7,"users":3,"peak":0.505,"prom":0.084,"radius_m":120,"peak_at":[-0.11624,51.45984],"name":"Black Cultural Archive"}},{"type":"Feature","geometry":{"type":"Point","coordinates":[-0.15919,51.50782]},"properties":{"level":"child","parent":14,"users":8,"peak":0.609,"prom":0.264,"radius_m":120,"peak_at":[-0.15919,51.50856],"name":"The Parade Ground"}},{"type":"Feature","geometry":{"type":"Point","coordinates":[-0.09961,51.582]},"properties":{"level":"child","parent":10,"users":3,"peak":0.696,"prom":0.418,"radius_m":120,"peak_at":[-0.09942,51.58135],"name":"Harringay"}},{"type":"Feature","geometry":{"type":"Point","coordinates":[-0.22615,51.51007]},"properties":{"level":"child","parent":19,"users":3,"peak":0.585,"prom":0.387,"radius_m":120,"peak_at":[-0.22615,51.51007],"name":"Hammersmith Park"}},{"type":"Feature","geometry":{"type":"Point","coordinates":[-0.08059,51.52612]},"properties":{"level":"child","parent":3,"users":24,"peak":0.934,"prom":0.431,"radius_m":219,"peak_at":[-0.08029,51.52645],"name":"Rivington Place"}},{"type":"Feature","geometry":{"type":"Point","coordinates":[-0.07386,51.52037]},"properties":{"level":"child","parent":3,"users":21,"peak":0.633,"prom":0.13,"radius_m":155,"peak_at":[-0.07448,51.51943],"name":"Christ Church Spitalfields"}},{"type":"Feature","geometry":{"type":"Point","coordinates":[-0.12014,51.52987]},"properties":{"level":"child","parent":21,"users":14,"peak":0.58,"prom":0.154,"radius_m":120,"peak_at":[-0.12027,51.52985],"name":"Argyle Square Gardens"}},{"type":"Feature","geometry":{"type":"Point","coordinates":[-0.28043,51.55625]},"properties":{"level":"child","parent":0,"users":14,"peak":0.938,"prom":0.639,"radius_m":183,"peak_at":[-0.28038,51.55603],"name":"Wembley Stadium"}},{"type":"Feature","geometry":{"type":"Point","coordinates":[-0.10213,51.51998]},"properties":{"level":"child","parent":27,"users":5,"peak":0.631,"prom":0.181,"radius_m":120,"peak_at":[-0.10213,51.51998],"name":"St Bartholomew-The Great"}},{"type":"Feature","geometry":{"type":"Point","coordinates":[-0.17743,51.50111]},"properties":{"level":"child","parent":31,"users":9,"peak":0.523,"prom":0.289,"radius_m":120,"peak_at":[-0.17743,51.50111],"name":"Royal Albert Hall"}},{"type":"Feature","geometry":{"type":"Point","coordinates":[-0.14192,51.55211]},"properties":{"level":"child","parent":18,"users":5,"peak":0.57,"prom":0.361,"radius_m":120,"peak_at":[-0.14192,51.55211],"name":"Christ Apostolic Church"}}]}