{"type":"FeatureCollection","features":[{"type":"Feature","geometry":{"type":"Point","coordinates":[-0.01953,51.50413]},"properties":{"level":"parent","id":0,"rank":0,"users":81,"peak":0.94,"prom":0.727,"radius_m":366,"peak_at":[-0.01801,51.50439],"name":"Canary Wharf"}},{"type":"Feature","geometry":{"type":"Point","coordinates":[-0.10384,51.50952]},"properties":{"level":"parent","id":1,"rank":1,"users":1127,"peak":1.0,"prom":0.62,"radius_m":1473,"peak_at":[-0.07649,51.5076],"name":"Butler's Wharf"}},{"type":"Feature","geometry":{"type":"Point","coordinates":[-0.17517,51.49777]},"properties":{"level":"parent","id":2,"rank":2,"users":81,"peak":0.844,"prom":0.584,"radius_m":366,"peak_at":[-0.17428,51.49601],"name":"Natural History Museum"}},{"type":"Feature","geometry":{"type":"Point","coordinates":[-0.14591,51.54109]},"properties":{"level":"parent","id":3,"rank":3,"users":20,"peak":0.723,"prom":0.562,"radius_m":250,"peak_at":[-0.14557,51.54129],"name":"Camden Lock Market"}},{"type":"Feature","geometry":{"type":"Point","coordinates":[-0.13953,51.50251]},"properties":{"level":"parent","id":4,"rank":4,"users":113,"peak":0.783,"prom":0.371,"radius_m":310,"peak_at":[-0.14112,51.50163],"name":"Victoria Memorial"}},{"type":"Feature","geometry":{"type":"Point","coordinates":[-0.12973,51.59474]},"properties":{"level":"parent","id":5,"rank":5,"users":6,"peak":0.584,"prom":0.584,"radius_m":170,"peak_at":[-0.12948,51.59477],"name":"Alexandra Palace Transmitter"}},{"type":"Feature","geometry":{"type":"Point","coordinates":[-0.26474,51.4924]},"properties":{"level":"parent","id":6,"rank":6,"users":8,"peak":0.64,"prom":0.468,"radius_m":219,"peak_at":[-0.26431,51.49196],"name":"Turnham Green"}},{"type":"Feature","geometry":{"type":"Point","coordinates":[0.00415,51.50241]},"properties":{"level":"parent","id":7,"rank":7,"users":32,"peak":0.595,"prom":0.417,"radius_m":240,"peak_at":[0.00317,51.50303],"name":"The O2"}},{"type":"Feature","geometry":{"type":"Point","coordinates":[-0.23022,51.48839]},"properties":{"level":"parent","id":8,"rank":8,"users":16,"peak":0.606,"prom":0.385,"radius_m":196,"peak_at":[-0.2303,51.48855],"name":"Hammersmith Bridge"}},{"type":"Feature","geometry":{"type":"Point","coordinates":[-0.27979,51.55648]},"properties":{"level":"parent","id":9,"rank":9,"users":5,"peak":0.584,"prom":0.411,"radius_m":155,"peak_at":[-0.28017,51.55644],"name":"Wembley Stadium"}},{"type":"Feature","geometry":{"type":"Point","coordinates":[0.07667,51.4281]},"properties":{"level":"parent","id":10,"rank":10,"users":1,"peak":0.496,"prom":0.496,"radius_m":155,"peak_at":[0.07646,51.42819]}},{"type":"Feature","geometry":{"type":"Point","coordinates":[-0.00597,51.48158]},"properties":{"level":"parent","id":11,"rank":11,"users":41,"peak":0.557,"prom":0.379,"radius_m":325,"peak_at":[-0.00659,51.48327],"name":"Old Royal Naval College"}},{"type":"Feature","geometry":{"type":"Point","coordinates":[-0.29829,51.45188]},"properties":{"level":"parent","id":12,"rank":12,"users":1,"peak":0.473,"prom":0.473,"radius_m":183,"peak_at":[-0.29853,51.45219],"name":"Terrace Field"}},{"type":"Feature","geometry":{"type":"Point","coordinates":[0.06925,51.54042]},"properties":{"level":"parent","id":13,"rank":13,"users":2,"peak":0.506,"prom":0.408,"radius_m":183,"peak_at":[0.06912,51.54011]}},{"type":"Feature","geometry":{"type":"Point","coordinates":[-0.28759,51.48756]},"properties":{"level":"parent","id":14,"rank":14,"users":9,"peak":0.64,"prom":0.202,"radius_m":310,"peak_at":[-0.28584,51.48741],"name":"Kew Bridge"}},{"type":"Feature","geometry":{"type":"Point","coordinates":[0.06147,51.4932]},"properties":{"level":"parent","id":15,"rank":15,"users":3,"peak":0.537,"prom":0.35,"radius_m":138,"peak_at":[0.0615,51.49322],"name":"New Wine Church"}},{"type":"Feature","geometry":{"type":"Point","coordinates":[-0.11417,51.46205]},"properties":{"level":"parent","id":16,"rank":16,"users":4,"peak":0.462,"prom":0.409,"radius_m":230,"peak_at":[-0.1139,51.46285],"name":"Brixton"}},{"type":"Feature","geometry":{"type":"Point","coordinates":[-0.29309,51.48229]},"properties":{"level":"parent","id":17,"rank":17,"users":13,"peak":0.594,"prom":0.157,"radius_m":310,"peak_at":[-0.29426,51.48294],"name":"Kew Palace"}},{"type":"Feature","geometry":{"type":"Point","coordinates":[-0.12495,51.53019]},"properties":{"level":"parent","id":18,"rank":18,"users":39,"peak":0.513,"prom":0.24,"radius_m":230,"peak_at":[-0.12528,51.53012],"name":"Restored K6 phone booth"}},{"type":"Feature","geometry":{"type":"Point","coordinates":[-0.20637,51.52342]},"properties":{"level":"parent","id":19,"rank":19,"users":8,"peak":0.416,"prom":0.274,"radius_m":138,"peak_at":[-0.20548,51.52371],"name":"Emmanuel Parish Church"}},{"type":"Feature","geometry":{"type":"Point","coordinates":[-0.14424,51.48133]},"properties":{"level":"parent","id":20,"rank":20,"users":12,"peak":0.407,"prom":0.271,"radius_m":155,"peak_at":[-0.14454,51.48092],"name":"Battersea Power Station"}},{"type":"Feature","geometry":{"type":"Point","coordinates":[-0.09997,51.49467]},"properties":{"level":"parent","id":21,"rank":21,"users":23,"peak":0.399,"prom":0.272,"radius_m":196,"peak_at":[-0.10039,51.4956],"name":"Michael Faraday Memorial substation"}},{"type":"Feature","geometry":{"type":"Point","coordinates":[-0.19136,51.48146]},"properties":{"level":"parent","id":22,"rank":22,"users":7,"peak":0.373,"prom":0.288,"radius_m":138,"peak_at":[-0.19088,51.4812],"name":"Stamford Bridge"}},{"type":"Feature","geometry":{"type":"Point","coordinates":[-0.16843,51.4813]},"properties":{"level":"parent","id":23,"rank":23,"users":12,"peak":0.386,"prom":0.254,"radius_m":170,"peak_at":[-0.16662,51.48131],"name":"Albert Bridge"}},{"type":"Feature","geometry":{"type":"Point","coordinates":[-0.27918,51.48428]},"properties":{"level":"parent","id":24,"rank":24,"users":5,"peak":0.45,"prom":0.137,"radius_m":138,"peak_at":[-0.27875,51.4847],"name":"Kew Railway Bridge"}},{"type":"Feature","geometry":{"type":"Point","coordinates":[-0.29736,51.47606]},"properties":{"level":"parent","id":25,"rank":25,"users":9,"peak":0.437,"prom":0.124,"radius_m":208,"peak_at":[-0.29697,51.47475],"name":"King William's Temple"}},{"type":"Feature","geometry":{"type":"Point","coordinates":[-0.07552,51.51933]},"properties":{"level":"parent","id":26,"rank":26,"users":27,"peak":0.459,"prom":0.0,"radius_m":219,"peak_at":[-0.0747,51.51913],"name":"Spitalfields"}},{"type":"Feature","geometry":{"type":"Point","coordinates":[-0.14928,51.48538]},"properties":{"level":"parent","id":27,"rank":27,"users":13,"peak":0.343,"prom":0.148,"radius_m":120,"peak_at":[-0.14992,51.48559],"name":"Chelsea Bridge"}},{"type":"Feature","geometry":{"type":"Point","coordinates":[-0.14176,51.51559]},"properties":{"level":"parent","id":28,"rank":28,"users":23,"peak":0.393,"prom":0.064,"radius_m":196,"peak_at":[-0.14172,51.51471],"name":"Twist Museum"}},{"type":"Feature","geometry":{"type":"Point","coordinates":[-0.21061,51.46727]},"properties":{"level":"parent","id":29,"rank":29,"users":7,"peak":0.324,"prom":0.152,"radius_m":138,"peak_at":[-0.20924,51.46687],"name":"Fulham Railway Bridge"}},{"type":"Feature","geometry":{"type":"Point","coordinates":[-0.14147,51.4967]},"properties":{"level":"parent","id":30,"rank":30,"users":25,"peak":0.423,"prom":0.0,"radius_m":170,"peak_at":[-0.14154,51.4966],"name":"Victoria"}},{"type":"Feature","geometry":{"type":"Point","coordinates":[-0.17786,51.51864]},"properties":{"level":"parent","id":31,"rank":31,"users":13,"peak":0.34,"prom":0.123,"radius_m":170,"peak_at":[-0.17722,51.51865],"name":"The Rolling Bridge"}},{"type":"Feature","geometry":{"type":"Point","coordinates":[-0.16335,51.52057]},"properties":{"level":"parent","id":32,"rank":32,"users":6,"peak":0.335,"prom":0.069,"radius_m":120,"peak_at":[-0.16457,51.52037],"name":"The Swedish Church"}},{"type":"Feature","geometry":{"type":"Point","coordinates":[-0.12611,51.48749]},"properties":{"level":"parent","id":33,"rank":33,"users":7,"peak":0.296,"prom":0.118,"radius_m":120,"peak_at":[-0.12549,51.48718],"name":"Vauxhall Bridge"}},{"type":"Feature","geometry":{"type":"Point","coordinates":[-0.10253,51.5448]},"properties":{"level":"parent","id":34,"rank":34,"users":7,"peak":0.259,"prom":0.173,"radius_m":120,"peak_at":[-0.10253,51.5448],"name":"Union Chapel"}},{"type":"Feature","geometry":{"type":"Point","coordinates":[-0.10941,51.51757]},"properties":{"level":"parent","id":35,"rank":35,"users":15,"peak":0.349,"prom":0.0,"radius_m":155,"peak_at":[-0.10971,51.51818],"name":"St Etheldreda's"}},{"type":"Feature","geometry":{"type":"Point","coordinates":[-0.19113,51.5024]},"properties":{"level":"parent","id":36,"rank":36,"users":8,"peak":0.326,"prom":0.01,"radius_m":120,"peak_at":[-0.19168,51.50223],"name":"St Mary Abbots"}},{"type":"Feature","geometry":{"type":"Point","coordinates":[-0.15754,51.52277]},"properties":{"level":"parent","id":37,"rank":37,"users":7,"peak":0.318,"prom":0.003,"radius_m":138,"peak_at":[-0.15769,51.52259],"name":"Madame Tussauds"}},{"type":"Feature","geometry":{"type":"Point","coordinates":[-0.12196,51.49472]},"properties":{"level":"parent","id":38,"rank":38,"users":10,"peak":0.319,"prom":0.0,"radius_m":120,"peak_at":[-0.12137,51.49433],"name":"Garden Museum"}},{"type":"Feature","geometry":{"type":"Point","coordinates":[-0.18761,51.50577]},"properties":{"level":"parent","id":39,"rank":39,"users":5,"peak":0.315,"prom":0.003,"radius_m":120,"peak_at":[-0.18729,51.50527],"name":"Kensington Palace"}},{"type":"Feature","geometry":{"type":"Point","coordinates":[-0.07718,51.50665]},"properties":{"level":"child","parent":1,"users":352,"peak":1.0,"prom":0.227,"radius_m":366,"peak_at":[-0.07649,51.5076],"name":"Coldharbour Gate"}},{"type":"Feature","geometry":{"type":"Point","coordinates":[-0.1254,51.50039]},"properties":{"level":"child","parent":1,"users":206,"peak":0.988,"prom":0.372,"radius_m":277,"peak_at":[-0.12612,51.50007],"name":"Westminster Hall"}},{"type":"Feature","geometry":{"type":"Point","coordinates":[-0.09933,51.51066]},"properties":{"level":"child","parent":1,"users":383,"peak":0.94,"prom":0.347,"radius_m":373,"peak_at":[-0.09853,51.51342],"name":"St Paul's Cathedral"}},{"type":"Feature","geometry":{"type":"Point","coordinates":[-0.08204,51.51452]},"properties":{"level":"child","parent":1,"users":113,"peak":0.851,"prom":0.123,"radius_m":219,"peak_at":[-0.08198,51.51412],"name":"St Helen's Bishopsgate"}},{"type":"Feature","geometry":{"type":"Point","coordinates":[-0.11823,51.50605]},"properties":{"level":"child","parent":1,"users":194,"peak":0.761,"prom":0.0,"radius_m":317,"peak_at":[-0.1199,51.50615],"name":"Hungerford Bridge"}},{"type":"Feature","geometry":{"type":"Point","coordinates":[-0.12797,51.50731]},"properties":{"level":"child","parent":1,"users":106,"peak":0.759,"prom":0.038,"radius_m":219,"peak_at":[-0.12794,51.50792],"name":"Nelson's Column"}},{"type":"Feature","geometry":{"type":"Point","coordinates":[-0.17474,51.49666]},"properties":{"level":"child","parent":2,"users":55,"peak":0.844,"prom":0.379,"radius_m":208,"peak_at":[-0.17428,51.49601],"name":"Natural History Museum"}},{"type":"Feature","geometry":{"type":"Point","coordinates":[-0.28684,51.48729]},"properties":{"level":"child","parent":14,"users":4,"peak":0.64,"prom":0.281,"radius_m":138,"peak_at":[-0.28584,51.48741],"name":"Kew Bridge"}},{"type":"Feature","geometry":{"type":"Point","coordinates":[-0.14599,51.54099]},"properties":{"level":"child","parent":3,"users":13,"peak":0.723,"prom":0.453,"radius_m":138,"peak_at":[-0.14557,51.54129],"name":"Camden Lock Market"}},{"type":"Feature","geometry":{"type":"Point","coordinates":[-0.26511,51.49233]},"properties":{"level":"child","parent":6,"users":5,"peak":0.64,"prom":0.405,"radius_m":120,"peak_at":[-0.26431,51.49196],"name":"Turnham Green"}},{"type":"Feature","geometry":{"type":"Point","coordinates":[-0.29456,51.48371]},"properties":{"level":"child","parent":17,"users":6,"peak":0.594,"prom":0.281,"radius_m":120,"peak_at":[-0.29426,51.48294],"name":"Kew Palace"}},{"type":"Feature","geometry":{"type":"Point","coordinates":[0.00401,51.50226]},"properties":{"level":"child","parent":7,"users":18,"peak":0.595,"prom":0.308,"radius_m":120,"peak_at":[0.00317,51.50303],"name":"The O2"}},{"type":"Feature","geometry":{"type":"Point","coordinates":[-0.12528,51.53012]},"properties":{"level":"child","parent":18,"users":12,"peak":0.513,"prom":0.162,"radius_m":120,"peak_at":[-0.12528,51.53012],"name":"Restored K6 phone booth"}},{"type":"Feature","geometry":{"type":"Point","coordinates":[-0.00659,51.48327]},"properties":{"level":"child","parent":11,"users":8,"peak":0.557,"prom":0.077,"radius_m":120,"peak_at":[-0.00659,51.48327],"name":"Old Royal Naval College"}}]}