{"type":"FeatureCollection","features":[{"type":"Feature","geometry":{"type":"Point","coordinates":[9.18953,45.46547]},"properties":{"level":"parent","id":0,"rank":0,"users":7,"peak":1.0,"prom":0.514,"radius_m":250,"peak_at":[9.18994,45.46496],"name":"Galleria Vittorio Emanuele Secondo","type":"culture"}},{"type":"Feature","geometry":{"type":"Point","coordinates":[9.1639,45.44933]},"properties":{"level":"parent","id":1,"rank":1,"users":1,"peak":0.616,"prom":0.41,"radius_m":196,"peak_at":[9.16431,45.44881],"name":"Giardino Robert Baden-Powell","type":"nature"}},{"type":"Feature","geometry":{"type":"Point","coordinates":[9.17434,45.45163]},"properties":{"level":"parent","id":2,"rank":2,"users":2,"peak":0.486,"prom":0.486,"radius_m":138,"peak_at":[9.17303,45.45164],"name":"Chiesa di Santa Maria delle Grazie","type":"culture"}},{"type":"Feature","geometry":{"type":"Point","coordinates":[9.20047,45.43691]},"properties":{"level":"parent","id":3,"rank":3,"users":1,"peak":0.41,"prom":0.41,"radius_m":120,"peak_at":[9.20047,45.43691],"name":"Chiesa di Santa Maria Liberatrice","type":"culture"}},{"type":"Feature","geometry":{"type":"Point","coordinates":[9.23332,45.43695]},"properties":{"level":"parent","id":4,"rank":4,"users":1,"peak":0.41,"prom":0.41,"radius_m":120,"peak_at":[9.23332,45.43695],"name":"Porto di Mare","type":"nightlife"}},{"type":"Feature","geometry":{"type":"Point","coordinates":[9.23688,45.49101]},"properties":{"level":"parent","id":5,"rank":5,"users":1,"peak":0.41,"prom":0.41,"radius_m":120,"peak_at":[9.23688,45.49101],"name":"Giardino Marisa Bellisario","type":"nature"}},{"type":"Feature","geometry":{"type":"Point","coordinates":[9.16498,45.45598]},"properties":{"level":"parent","id":6,"rank":6,"users":1,"peak":0.41,"prom":0.41,"radius_m":120,"peak_at":[9.16498,45.45598],"name":"Giardini Don Luigi Giussani","type":"nature"}},{"type":"Feature","geometry":{"type":"Point","coordinates":[9.14058,45.50724]},"properties":{"level":"parent","id":7,"rank":7,"users":1,"peak":0.41,"prom":0.41,"radius_m":120,"peak_at":[9.14058,45.50724],"name":"Parco Pubblico Franco Verga","type":"nature"}},{"type":"Feature","geometry":{"type":"Point","coordinates":[9.16483,45.49882]},"properties":{"level":"parent","id":8,"rank":8,"users":1,"peak":0.41,"prom":0.41,"radius_m":120,"peak_at":[9.16483,45.49882],"name":"Piazzale Lugano","type":"nature"}},{"type":"Feature","geometry":{"type":"Point","coordinates":[9.18981,45.4653]},"properties":{"level":"child","parent":0,"users":5,"peak":1.0,"prom":0.676,"radius_m":170,"peak_at":[9.18994,45.46496],"name":"Galleria Vittorio Emanuele Secondo","type":"culture"}}]}