{"type":"FeatureCollection","features":[{"type":"Feature","geometry":{"type":"Point","coordinates":[9.19934,45.47448]},"properties":{"level":"parent","id":0,"rank":0,"users":7,"peak":1.0,"prom":0.742,"radius_m":259,"peak_at":[9.1979,45.47453],"name":"Contemporary Arts Pavilion","type":"culture"}},{"type":"Feature","geometry":{"type":"Point","coordinates":[9.20233,45.52466]},"properties":{"level":"parent","id":1,"rank":1,"users":1,"peak":0.587,"prom":0.587,"radius_m":138,"peak_at":[9.20227,45.52513],"name":"Parco Nord Milano","type":"nature"}},{"type":"Feature","geometry":{"type":"Point","coordinates":[9.24108,45.39842]},"properties":{"level":"parent","id":2,"rank":2,"users":1,"peak":0.587,"prom":0.587,"radius_m":138,"peak_at":[9.24171,45.39827]}},{"type":"Feature","geometry":{"type":"Point","coordinates":[9.28739,45.46117]},"properties":{"level":"parent","id":3,"rank":3,"users":3,"peak":0.587,"prom":0.587,"radius_m":170,"peak_at":[9.288,45.46133],"name":"Idroscalo di Milano","type":"nature"}},{"type":"Feature","geometry":{"type":"Point","coordinates":[9.26549,45.4669]},"properties":{"level":"parent","id":4,"rank":4,"users":2,"peak":0.587,"prom":0.587,"radius_m":138,"peak_at":[9.26568,45.46782],"name":"Laghetto Salesina","type":"nature"}},{"type":"Feature","geometry":{"type":"Point","coordinates":[9.17739,45.47369]},"properties":{"level":"parent","id":5,"rank":5,"users":8,"peak":0.645,"prom":0.387,"radius_m":317,"peak_at":[9.17687,45.47297],"name":"Bridge of the Little Mermaids","type":"culture"}},{"type":"Feature","geometry":{"type":"Point","coordinates":[9.18976,45.46427]},"properties":{"level":"parent","id":6,"rank":6,"users":4,"peak":0.613,"prom":0.355,"radius_m":138,"peak_at":[9.19054,45.46427],"name":"Cathedral Square","type":"culture"}},{"type":"Feature","geometry":{"type":"Point","coordinates":[9.27639,45.41791]},"properties":{"level":"parent","id":7,"rank":7,"users":1,"peak":0.391,"prom":0.391,"radius_m":120,"peak_at":[9.27639,45.41791],"name":"Orti Yabboq","type":"nature"}},{"type":"Feature","geometry":{"type":"Point","coordinates":[9.13569,45.44358]},"properties":{"level":"parent","id":8,"rank":8,"users":1,"peak":0.391,"prom":0.391,"radius_m":120,"peak_at":[9.13569,45.44358],"name":"Parcheggio","type":"nature"}},{"type":"Feature","geometry":{"type":"Point","coordinates":[9.19809,45.54265]},"properties":{"level":"parent","id":9,"rank":9,"users":1,"peak":0.391,"prom":0.391,"radius_m":120,"peak_at":[9.19809,45.54265],"name":"Bresso Parco Nord","type":"nature"}},{"type":"Feature","geometry":{"type":"Point","coordinates":[9.24401,45.48316]},"properties":{"level":"parent","id":10,"rank":10,"users":1,"peak":0.391,"prom":0.391,"radius_m":120,"peak_at":[9.24401,45.48316],"name":"Lambrate","type":"culture"}},{"type":"Feature","geometry":{"type":"Point","coordinates":[9.1506,45.4072]},"properties":{"level":"parent","id":11,"rank":11,"users":1,"peak":0.391,"prom":0.391,"radius_m":120,"peak_at":[9.1506,45.4072],"name":"Assago Milanofiori Nord","type":"food"}},{"type":"Feature","geometry":{"type":"Point","coordinates":[9.14786,45.44622]},"properties":{"level":"parent","id":12,"rank":12,"users":1,"peak":0.391,"prom":0.391,"radius_m":120,"peak_at":[9.14786,45.44622],"name":"Parco Via Savona - Via Brunelleschi","type":"nature"}},{"type":"Feature","geometry":{"type":"Point","coordinates":[9.10731,45.55269]},"properties":{"level":"parent","id":13,"rank":13,"users":2,"peak":0.391,"prom":0.391,"radius_m":120,"peak_at":[9.10732,45.55158],"name":"Treeftyland","type":"nature"}},{"type":"Feature","geometry":{"type":"Point","coordinates":[9.0988,45.49453]},"properties":{"level":"parent","id":14,"rank":14,"users":1,"peak":0.391,"prom":0.391,"radius_m":120,"peak_at":[9.0988,45.49453],"name":"Giardino Rosa Genoni","type":"nature"}},{"type":"Feature","geometry":{"type":"Point","coordinates":[9.15908,45.44867]},"properties":{"level":"parent","id":15,"rank":15,"users":1,"peak":0.391,"prom":0.391,"radius_m":120,"peak_at":[9.15908,45.44867],"name":"L'Artiglio","type":"nature"}},{"type":"Feature","geometry":{"type":"Point","coordinates":[9.27706,45.57003]},"properties":{"level":"parent","id":16,"rank":16,"users":1,"peak":0.391,"prom":0.391,"radius_m":120,"peak_at":[9.27706,45.57003]}},{"type":"Feature","geometry":{"type":"Point","coordinates":[9.22581,45.51827]},"properties":{"level":"parent","id":17,"rank":17,"users":1,"peak":0.391,"prom":0.391,"radius_m":120,"peak_at":[9.22581,45.51827],"name":"Villa San Giovanni","type":"culture"}},{"type":"Feature","geometry":{"type":"Point","coordinates":[9.20274,45.54868]},"properties":{"level":"parent","id":18,"rank":18,"users":1,"peak":0.391,"prom":0.391,"radius_m":120,"peak_at":[9.20274,45.54868],"name":"Scuola Equestre di Formazione Italia","type":"nature"}},{"type":"Feature","geometry":{"type":"Point","coordinates":[9.23688,45.49101]},"properties":{"level":"parent","id":19,"rank":19,"users":1,"peak":0.391,"prom":0.391,"radius_m":120,"peak_at":[9.23688,45.49101],"name":"Giardino Marisa Bellisario","type":"nature"}},{"type":"Feature","geometry":{"type":"Point","coordinates":[9.30662,45.52042]},"properties":{"level":"parent","id":20,"rank":20,"users":1,"peak":0.391,"prom":0.391,"radius_m":120,"peak_at":[9.30662,45.52042],"name":"Pista Ciclabile Naviglio Martesana","type":"nature"}},{"type":"Feature","geometry":{"type":"Point","coordinates":[9.03763,45.49668]},"properties":{"level":"parent","id":21,"rank":21,"users":1,"peak":0.391,"prom":0.391,"radius_m":120,"peak_at":[9.03763,45.49668]}},{"type":"Feature","geometry":{"type":"Point","coordinates":[9.14631,45.46057]},"properties":{"level":"parent","id":22,"rank":22,"users":1,"peak":0.391,"prom":0.391,"radius_m":120,"peak_at":[9.14631,45.46057],"name":"Parco Pubblico BPM","type":"nature"}},{"type":"Feature","geometry":{"type":"Point","coordinates":[9.19865,45.55974]},"properties":{"level":"parent","id":23,"rank":23,"users":1,"peak":0.391,"prom":0.391,"radius_m":120,"peak_at":[9.19865,45.55974]}},{"type":"Feature","geometry":{"type":"Point","coordinates":[9.10621,45.48809]},"properties":{"level":"parent","id":24,"rank":24,"users":1,"peak":0.391,"prom":0.391,"radius_m":120,"peak_at":[9.10621,45.48809]}},{"type":"Feature","geometry":{"type":"Point","coordinates":[9.21723,45.55911]},"properties":{"level":"parent","id":25,"rank":25,"users":1,"peak":0.391,"prom":0.391,"radius_m":120,"peak_at":[9.21723,45.55911],"name":"Parco di Villa Ghirlanda","type":"nature"}},{"type":"Feature","geometry":{"type":"Point","coordinates":[9.2677,45.41902]},"properties":{"level":"parent","id":26,"rank":26,"users":1,"peak":0.391,"prom":0.391,"radius_m":120,"peak_at":[9.2677,45.41902]}},{"type":"Feature","geometry":{"type":"Point","coordinates":[9.16664,45.51561]},"properties":{"level":"parent","id":27,"rank":27,"users":1,"peak":0.391,"prom":0.391,"radius_m":120,"peak_at":[9.16664,45.51561],"name":"Parco Villa Litta","type":"nature"}},{"type":"Feature","geometry":{"type":"Point","coordinates":[9.18766,45.48221]},"properties":{"level":"parent","id":28,"rank":28,"users":4,"peak":0.387,"prom":0.387,"radius_m":208,"peak_at":[9.1873,45.48328],"name":"Garibaldi FS","type":"nature"}},{"type":"Feature","geometry":{"type":"Point","coordinates":[9.16648,45.48301]},"properties":{"level":"parent","id":29,"rank":29,"users":2,"peak":0.387,"prom":0.387,"radius_m":170,"peak_at":[9.16547,45.48313],"name":"Gerusalemme","type":"food"}},{"type":"Feature","geometry":{"type":"Point","coordinates":[9.17663,45.47283]},"properties":{"level":"child","parent":5,"users":3,"peak":0.645,"prom":0.107,"radius_m":120,"peak_at":[9.17687,45.47297],"name":"Bridge of the Little Mermaids","type":"culture"}}]}