{"type":"FeatureCollection","features":[{"type":"Feature","geometry":{"type":"Point","coordinates":[14.3471,40.80597]},"properties":{"level":"parent","id":0,"rank":0,"users":43,"peak":0.961,"prom":0.757,"radius_m":219,"peak_at":[14.34654,40.80565],"name":"House of the Mosaic Atrium","type":"culture"}},{"type":"Feature","geometry":{"type":"Point","coordinates":[14.25395,40.84418]},"properties":{"level":"parent","id":1,"rank":1,"users":266,"peak":1.0,"prom":0.486,"radius_m":900,"peak_at":[14.2495,40.83687],"name":"San Ferdinando","type":"culture"}},{"type":"Feature","geometry":{"type":"Point","coordinates":[14.12164,40.82528]},"properties":{"level":"parent","id":2,"rank":2,"users":18,"peak":0.794,"prom":0.399,"radius_m":285,"peak_at":[14.1204,40.82608],"name":"Macellum Tempio di Serapide","type":"culture"}},{"type":"Feature","geometry":{"type":"Point","coordinates":[14.14027,40.82734]},"properties":{"level":"parent","id":3,"rank":3,"users":4,"peak":0.662,"prom":0.432,"radius_m":170,"peak_at":[14.14055,40.82713],"name":"Solfatara","type":"culture"}},{"type":"Feature","geometry":{"type":"Point","coordinates":[14.19342,40.82649]},"properties":{"level":"parent","id":4,"rank":4,"users":6,"peak":0.648,"prom":0.428,"radius_m":268,"peak_at":[14.19365,40.82726],"name":"Stadio Diego Armando Maradona","type":"food"}},{"type":"Feature","geometry":{"type":"Point","coordinates":[14.24018,40.84401]},"properties":{"level":"parent","id":5,"rank":5,"users":38,"peak":0.742,"prom":0.263,"radius_m":240,"peak_at":[14.24011,40.84338],"name":"Castel Sant'Elmo","type":"culture"}},{"type":"Feature","geometry":{"type":"Point","coordinates":[14.24982,40.86658]},"properties":{"level":"parent","id":6,"rank":6,"users":8,"peak":0.464,"prom":0.317,"radius_m":120,"peak_at":[14.2507,40.86687],"name":"Museo Nazionale di Capodimonte","type":"culture"}},{"type":"Feature","geometry":{"type":"Point","coordinates":[14.18142,40.82256]},"properties":{"level":"parent","id":7,"rank":7,"users":6,"peak":0.458,"prom":0.08,"radius_m":155,"peak_at":[14.18309,40.82134],"name":"Edenlandia","type":"culture"}},{"type":"Feature","geometry":{"type":"Point","coordinates":[14.24154,40.83298]},"properties":{"level":"parent","id":8,"rank":8,"users":14,"peak":0.487,"prom":0.0,"radius_m":170,"peak_at":[14.24159,40.83276],"name":"Chiesa di Santa Maria della Vittoria","type":"culture"}},{"type":"Feature","geometry":{"type":"Point","coordinates":[14.21889,40.82891]},"properties":{"level":"parent","id":9,"rank":9,"users":8,"peak":0.395,"prom":0.136,"radius_m":183,"peak_at":[14.21988,40.8284],"name":"Mergellina","type":"culture"}},{"type":"Feature","geometry":{"type":"Point","coordinates":[14.25086,40.83813]},"properties":{"level":"child","parent":1,"users":112,"peak":1.0,"prom":0.425,"radius_m":302,"peak_at":[14.2495,40.83687],"name":"Piazza Trieste e Trento","type":"culture"}},{"type":"Feature","geometry":{"type":"Point","coordinates":[14.25547,40.84913]},"properties":{"level":"child","parent":1,"users":68,"peak":0.79,"prom":0.121,"radius_m":310,"peak_at":[14.25857,40.8518],"name":"Pinacoteca del Monte della Misericordia","type":"culture"}},{"type":"Feature","geometry":{"type":"Point","coordinates":[14.2511,40.85361]},"properties":{"level":"child","parent":1,"users":50,"peak":0.764,"prom":0.159,"radius_m":120,"peak_at":[14.25054,40.8536],"name":"Naples National Archaeological Museum","type":"culture"}},{"type":"Feature","geometry":{"type":"Point","coordinates":[14.24756,40.82949]},"properties":{"level":"child","parent":1,"users":9,"peak":0.656,"prom":0.145,"radius_m":120,"peak_at":[14.24756,40.82949],"name":"Castle dell'Ovo","type":"culture"}},{"type":"Feature","geometry":{"type":"Point","coordinates":[14.12095,40.82559]},"properties":{"level":"child","parent":2,"users":6,"peak":0.794,"prom":0.217,"radius_m":120,"peak_at":[14.1204,40.82608],"name":"Macellum Tempio di Serapide","type":"culture"}}]}