{"type":"FeatureCollection","features":[{"type":"Feature","geometry":{"type":"Point","coordinates":[-74.04497,40.68953]},"properties":{"level":"parent","id":0,"rank":0,"users":88,"peak":0.953,"prom":0.748,"radius_m":230,"peak_at":[-74.04454,40.68928],"name":"Statue of Liberty","type":"culture"}},{"type":"Feature","geometry":{"type":"Point","coordinates":[-73.97683,40.7613]},"properties":{"level":"parent","id":1,"rank":1,"users":216,"peak":0.981,"prom":0.607,"radius_m":385,"peak_at":[-73.9771,40.76111],"name":"MoMA","type":"culture"}},{"type":"Feature","geometry":{"type":"Point","coordinates":[-73.96341,40.77907]},"properties":{"level":"parent","id":2,"rank":2,"users":165,"peak":1.0,"prom":0.463,"radius_m":230,"peak_at":[-73.96326,40.77936],"name":"The Metropolitan Museum of Art","type":"culture"}},{"type":"Feature","geometry":{"type":"Point","coordinates":[-73.96473,40.67159]},"properties":{"level":"parent","id":3,"rank":3,"users":18,"peak":0.824,"prom":0.65,"radius_m":240,"peak_at":[-73.9638,40.67098],"name":"Brooklyn Museum","type":"culture"}},{"type":"Feature","geometry":{"type":"Point","coordinates":[-73.98942,40.70322]},"properties":{"level":"parent","id":4,"rank":4,"users":25,"peak":0.802,"prom":0.519,"radius_m":310,"peak_at":[-73.98882,40.70332],"name":"Dumbo","type":"culture"}},{"type":"Feature","geometry":{"type":"Point","coordinates":[-73.97351,40.7811]},"properties":{"level":"parent","id":5,"rank":5,"users":75,"peak":0.716,"prom":0.579,"radius_m":208,"peak_at":[-73.97361,40.78098],"name":"American Museum of Natural History","type":"culture"}},{"type":"Feature","geometry":{"type":"Point","coordinates":[-73.99353,40.7238]},"properties":{"level":"parent","id":6,"rank":6,"users":166,"peak":0.851,"prom":0.335,"radius_m":810,"peak_at":[-73.9944,40.7213],"name":"Little Italy","type":"nightlife"}},{"type":"Feature","geometry":{"type":"Point","coordinates":[-74.01184,40.70717]},"properties":{"level":"parent","id":7,"rank":7,"users":117,"peak":0.745,"prom":0.461,"radius_m":513,"peak_at":[-74.01555,40.70341],"name":"Castle Clinton","type":"culture"}},{"type":"Feature","geometry":{"type":"Point","coordinates":[-73.98879,40.74263]},"properties":{"level":"parent","id":8,"rank":8,"users":39,"peak":0.693,"prom":0.458,"radius_m":208,"peak_at":[-73.98885,40.74221],"name":"Madison Square Park","type":"nature"}},{"type":"Feature","geometry":{"type":"Point","coordinates":[-74.00543,40.74783]},"properties":{"level":"parent","id":9,"rank":9,"users":26,"peak":0.699,"prom":0.362,"radius_m":294,"peak_at":[-74.00622,40.74737],"name":"Matthew Marks Gallery","type":"culture"}},{"type":"Feature","geometry":{"type":"Point","coordinates":[-73.92526,40.82753]},"properties":{"level":"parent","id":10,"rank":10,"users":5,"peak":0.618,"prom":0.435,"radius_m":208,"peak_at":[-73.92548,40.82801],"name":"The Yankees Museum","type":"culture"}},{"type":"Feature","geometry":{"type":"Point","coordinates":[-73.96194,40.80823]},"properties":{"level":"parent","id":11,"rank":11,"users":11,"peak":0.715,"prom":0.14,"radius_m":196,"peak_at":[-73.96202,40.80793],"name":"Alma Mater","type":"culture"}},{"type":"Feature","geometry":{"type":"Point","coordinates":[-73.96347,40.81346]},"properties":{"level":"parent","id":12,"rank":12,"users":10,"peak":0.741,"prom":0.085,"radius_m":170,"peak_at":[-73.96348,40.81345],"name":"General Grant National Memorial","type":"culture"}},{"type":"Feature","geometry":{"type":"Point","coordinates":[-73.95913,40.71683]},"properties":{"level":"parent","id":13,"rank":13,"users":32,"peak":0.642,"prom":0.161,"radius_m":415,"peak_at":[-73.95936,40.71684],"name":"Conners Square","type":"nature"}},{"type":"Feature","geometry":{"type":"Point","coordinates":[-73.98195,40.76812]},"properties":{"level":"parent","id":14,"rank":14,"users":36,"peak":0.527,"prom":0.302,"radius_m":138,"peak_at":[-73.98156,40.76817],"name":"Christopher Columbus Monument","type":"culture"}},{"type":"Feature","geometry":{"type":"Point","coordinates":[-73.94555,40.74565]},"properties":{"level":"parent","id":15,"rank":15,"users":23,"peak":0.489,"prom":0.334,"radius_m":170,"peak_at":[-73.94581,40.74532],"name":"MoMA PS1","type":"culture"}},{"type":"Feature","geometry":{"type":"Point","coordinates":[-74.00549,40.74021]},"properties":{"level":"parent","id":16,"rank":16,"users":21,"peak":0.536,"prom":0.189,"radius_m":219,"peak_at":[-74.00701,40.73961],"name":"Whitney Museum of American Art","type":"culture"}},{"type":"Feature","geometry":{"type":"Point","coordinates":[-74.00177,40.70682]},"properties":{"level":"parent","id":17,"rank":17,"users":12,"peak":0.495,"prom":0.211,"radius_m":170,"peak_at":[-74.00235,40.70646],"name":"Ambrose","type":"culture"}},{"type":"Feature","geometry":{"type":"Point","coordinates":[-73.96763,40.75067]},"properties":{"level":"parent","id":18,"rank":18,"users":20,"peak":0.423,"prom":0.278,"radius_m":120,"peak_at":[-73.96747,40.751],"name":"United Nations Headquarters","type":"culture"}},{"type":"Feature","geometry":{"type":"Point","coordinates":[-73.98947,40.67785]},"properties":{"level":"parent","id":19,"rank":19,"users":5,"peak":0.434,"prom":0.26,"radius_m":155,"peak_at":[-73.98937,40.67831],"name":"Carroll Street Bridge","type":"culture"}},{"type":"Feature","geometry":{"type":"Point","coordinates":[-73.9863,40.75568]},"properties":{"level":"parent","id":20,"rank":20,"users":44,"peak":0.487,"prom":0.128,"radius_m":277,"peak_at":[-73.98808,40.75656],"name":"Madame Tussauds New York","type":"culture"}},{"type":"Feature","geometry":{"type":"Point","coordinates":[-74.00134,40.76505]},"properties":{"level":"parent","id":21,"rank":21,"users":7,"peak":0.396,"prom":0.261,"radius_m":120,"peak_at":[-74.00095,40.7649],"name":"USS Intrepid","type":"culture"}},{"type":"Feature","geometry":{"type":"Point","coordinates":[-73.95887,40.78311]},"properties":{"level":"parent","id":22,"rank":22,"users":65,"peak":0.561,"prom":0.0,"radius_m":155,"peak_at":[-73.95869,40.78371],"name":"Guggenheim Museum","type":"culture"}},{"type":"Feature","geometry":{"type":"Point","coordinates":[-73.95243,40.79269]},"properties":{"level":"parent","id":23,"rank":23,"users":8,"peak":0.351,"prom":0.276,"radius_m":120,"peak_at":[-73.95215,40.79256],"name":"Museum of the City of New York","type":"culture"}},{"type":"Feature","geometry":{"type":"Point","coordinates":[-73.93658,40.7686]},"properties":{"level":"parent","id":24,"rank":24,"users":7,"peak":0.369,"prom":0.232,"radius_m":120,"peak_at":[-73.93658,40.7686],"name":"Socrates Sculpture Park","type":"nature"}},{"type":"Feature","geometry":{"type":"Point","coordinates":[-73.99105,40.73528]},"properties":{"level":"parent","id":25,"rank":25,"users":30,"peak":0.516,"prom":0.008,"radius_m":170,"peak_at":[-73.99101,40.7353],"name":"Union Square Park","type":"nature"}},{"type":"Feature","geometry":{"type":"Point","coordinates":[-73.97268,40.77424]},"properties":{"level":"parent","id":26,"rank":26,"users":24,"peak":0.423,"prom":0.123,"radius_m":183,"peak_at":[-73.97104,40.7741],"name":"Bethesda Fountain","type":"culture"}},{"type":"Feature","geometry":{"type":"Point","coordinates":[-74.03976,40.69914]},"properties":{"level":"parent","id":27,"rank":27,"users":7,"peak":0.352,"prom":0.22,"radius_m":120,"peak_at":[-74.03976,40.69914],"name":"Ellis Island Immigration Museum","type":"culture"}},{"type":"Feature","geometry":{"type":"Point","coordinates":[-73.96511,40.71229]},"properties":{"level":"parent","id":28,"rank":28,"users":8,"peak":0.481,"prom":0.0,"radius_m":155,"peak_at":[-73.96455,40.71237],"name":"Berry Playground","type":"nature"}},{"type":"Feature","geometry":{"type":"Point","coordinates":[-74.01516,40.68979]},"properties":{"level":"parent","id":29,"rank":29,"users":5,"peak":0.363,"prom":0.1,"radius_m":138,"peak_at":[-74.01554,40.69009],"name":"Fort Jay","type":"culture"}},{"type":"Feature","geometry":{"type":"Point","coordinates":[-73.99781,40.73077]},"properties":{"level":"parent","id":30,"rank":30,"users":9,"peak":0.42,"prom":0.0,"radius_m":170,"peak_at":[-73.99682,40.7314],"name":"Washington Square Arch","type":"culture"}},{"type":"Feature","geometry":{"type":"Point","coordinates":[-74.00233,40.73281]},"properties":{"level":"parent","id":31,"rank":31,"users":11,"peak":0.412,"prom":0.0,"radius_m":120,"peak_at":[-74.00133,40.732],"name":"West Fourth Street Courts","type":"nature"}},{"type":"Feature","geometry":{"type":"Point","coordinates":[-73.9776,40.75244]},"properties":{"level":"parent","id":32,"rank":32,"users":12,"peak":0.359,"prom":0.0,"radius_m":120,"peak_at":[-73.9776,40.75244],"name":"Grand Central Terminal","type":"culture"}},{"type":"Feature","geometry":{"type":"Point","coordinates":[-73.95753,40.7215]},"properties":{"level":"parent","id":33,"rank":33,"users":5,"peak":0.33,"prom":0.0,"radius_m":120,"peak_at":[-73.95694,40.72126],"name":"Drawing Room Brooklyn","type":"culture"}},{"type":"Feature","geometry":{"type":"Point","coordinates":[-74.01559,40.70363]},"properties":{"level":"child","parent":7,"users":44,"peak":0.745,"prom":0.088,"radius_m":208,"peak_at":[-74.01555,40.70341],"name":"Castle Clinton","type":"culture"}},{"type":"Feature","geometry":{"type":"Point","coordinates":[-74.01075,40.70768]},"properties":{"level":"child","parent":7,"users":17,"peak":0.657,"prom":0.034,"radius_m":138,"peak_at":[-74.01025,40.70715],"name":"New York Stock Exchange","type":"culture"}},{"type":"Feature","geometry":{"type":"Point","coordinates":[-73.99459,40.7238]},"properties":{"level":"child","parent":6,"users":70,"peak":0.851,"prom":0.114,"radius_m":317,"peak_at":[-73.9944,40.7213],"name":"Elizabeth Street Garden","type":"nature"}},{"type":"Feature","geometry":{"type":"Point","coordinates":[-74.00239,40.7216]},"properties":{"level":"child","parent":6,"users":35,"peak":0.801,"prom":0.013,"radius_m":230,"peak_at":[-74.00291,40.72196],"name":"The Drawing Center","type":"culture"}},{"type":"Feature","geometry":{"type":"Point","coordinates":[-73.98384,40.72755]},"properties":{"level":"child","parent":6,"users":8,"peak":0.573,"prom":0.038,"radius_m":120,"peak_at":[-73.98301,40.72741],"name":"Samuel Sullivan Cox","type":"culture"}},{"type":"Feature","geometry":{"type":"Point","coordinates":[-73.99079,40.73011]},"properties":{"level":"child","parent":6,"users":5,"peak":0.558,"prom":0.023,"radius_m":120,"peak_at":[-73.99079,40.73011],"name":"Cooper Triangle","type":"nature"}},{"type":"Feature","geometry":{"type":"Point","coordinates":[-74.00544,40.74744]},"properties":{"level":"child","parent":9,"users":15,"peak":0.699,"prom":0.344,"radius_m":170,"peak_at":[-74.00622,40.74737],"name":"Matthew Marks Gallery","type":"culture"}},{"type":"Feature","geometry":{"type":"Point","coordinates":[-73.95934,40.71601]},"properties":{"level":"child","parent":13,"users":8,"peak":0.642,"prom":0.161,"radius_m":138,"peak_at":[-73.95936,40.71684],"name":"Bedford Avenue","type":"food"}},{"type":"Feature","geometry":{"type":"Point","coordinates":[-73.98925,40.70303]},"properties":{"level":"child","parent":4,"users":16,"peak":0.802,"prom":0.532,"radius_m":183,"peak_at":[-73.98882,40.70332],"name":"Brooklyn Bridge Viewpoint","type":"culture"}},{"type":"Feature","geometry":{"type":"Point","coordinates":[-73.98826,40.74233]},"properties":{"level":"child","parent":8,"users":27,"peak":0.693,"prom":0.389,"radius_m":120,"peak_at":[-73.98885,40.74221],"name":"Madison Square Park","type":"nature"}},{"type":"Feature","geometry":{"type":"Point","coordinates":[-73.9733,40.78117]},"properties":{"level":"child","parent":5,"users":56,"peak":0.716,"prom":0.488,"radius_m":120,"peak_at":[-73.97361,40.78098],"name":"American Museum of Natural History","type":"culture"}},{"type":"Feature","geometry":{"type":"Point","coordinates":[-73.96301,40.81336]},"properties":{"level":"child","parent":12,"users":7,"peak":0.741,"prom":0.381,"radius_m":120,"peak_at":[-73.96348,40.81345],"name":"General Grant National Memorial","type":"culture"}},{"type":"Feature","geometry":{"type":"Point","coordinates":[-73.9618,40.80847]},"properties":{"level":"child","parent":11,"users":6,"peak":0.715,"prom":0.29,"radius_m":120,"peak_at":[-73.96202,40.80793],"name":"Alma Mater","type":"culture"}},{"type":"Feature","geometry":{"type":"Point","coordinates":[-73.95869,40.78371]},"properties":{"level":"child","parent":22,"users":13,"peak":0.561,"prom":0.237,"radius_m":120,"peak_at":[-73.95869,40.78371],"name":"Guggenheim Museum","type":"culture"}}]}