{"type":"FeatureCollection","features":[{"type":"Feature","geometry":{"type":"Point","coordinates":[-73.98475,40.75898]},"properties":{"level":"parent","id":0,"rank":0,"users":83,"peak":0.937,"prom":0.632,"radius_m":671,"peak_at":[-73.98646,40.75647],"name":"Manhattan"}},{"type":"Feature","geometry":{"type":"Point","coordinates":[-73.98051,40.67633]},"properties":{"level":"parent","id":1,"rank":1,"users":10,"peak":0.876,"prom":0.552,"radius_m":230,"peak_at":[-73.98016,40.6762],"name":"Park Slope Playground"}},{"type":"Feature","geometry":{"type":"Point","coordinates":[-73.9899,40.72564]},"properties":{"level":"parent","id":2,"rank":2,"users":128,"peak":1.0,"prom":0.264,"radius_m":859,"peak_at":[-73.98802,40.72106],"name":"Lower East Side"}},{"type":"Feature","geometry":{"type":"Point","coordinates":[-73.91569,40.77293]},"properties":{"level":"parent","id":3,"rank":3,"users":4,"peak":0.785,"prom":0.523,"radius_m":183,"peak_at":[-73.91591,40.77298],"name":"Hoyt Playground"}},{"type":"Feature","geometry":{"type":"Point","coordinates":[-74.0313,40.73708]},"properties":{"level":"parent","id":4,"rank":4,"users":3,"peak":0.652,"prom":0.652,"radius_m":120,"peak_at":[-74.03133,40.73739],"name":"Downtown"}},{"type":"Feature","geometry":{"type":"Point","coordinates":[-74.002,40.70666]},"properties":{"level":"parent","id":5,"rank":5,"users":14,"peak":0.677,"prom":0.559,"radius_m":208,"peak_at":[-74.0024,40.70585],"name":"Ambrose"}},{"type":"Feature","geometry":{"type":"Point","coordinates":[-74.0008,40.73066]},"properties":{"level":"parent","id":6,"rank":6,"users":33,"peak":0.792,"prom":0.346,"radius_m":353,"peak_at":[-74.00178,40.7324],"name":"Hess Triangle"}},{"type":"Feature","geometry":{"type":"Point","coordinates":[-73.9394,40.84572]},"properties":{"level":"parent","id":7,"rank":7,"users":3,"peak":0.488,"prom":0.488,"radius_m":120,"peak_at":[-73.93857,40.8462],"name":"Fort Washington Presbyterian Church"}},{"type":"Feature","geometry":{"type":"Point","coordinates":[-73.97056,40.77269]},"properties":{"level":"parent","id":8,"rank":8,"users":8,"peak":0.546,"prom":0.39,"radius_m":138,"peak_at":[-73.97033,40.77267],"name":"Bethesda Fountain"}},{"type":"Feature","geometry":{"type":"Point","coordinates":[-73.99058,40.70365]},"properties":{"level":"parent","id":9,"rank":9,"users":10,"peak":0.515,"prom":0.398,"radius_m":250,"peak_at":[-73.99028,40.70388],"name":"Dumbo"}},{"type":"Feature","geometry":{"type":"Point","coordinates":[-74.00236,40.75724]},"properties":{"level":"parent","id":10,"rank":10,"users":5,"peak":0.479,"prom":0.401,"radius_m":138,"peak_at":[-74.00228,40.75791],"name":"Hudson Yards"}},{"type":"Feature","geometry":{"type":"Point","coordinates":[-73.94922,40.72001]},"properties":{"level":"parent","id":11,"rank":11,"users":10,"peak":0.618,"prom":0.153,"radius_m":183,"peak_at":[-73.94925,40.72024],"name":"Ericsson Playground"}},{"type":"Feature","geometry":{"type":"Point","coordinates":[-73.95932,40.7172]},"properties":{"level":"parent","id":12,"rank":12,"users":19,"peak":0.647,"prom":0.029,"radius_m":366,"peak_at":[-73.96229,40.71677],"name":"William Sheridan Playground"}},{"type":"Feature","geometry":{"type":"Point","coordinates":[-73.97248,40.79608]},"properties":{"level":"parent","id":13,"rank":13,"users":2,"peak":0.353,"prom":0.353,"radius_m":120,"peak_at":[-73.97137,40.79573],"name":"Holy Name of Jesus Catholic Church"}},{"type":"Feature","geometry":{"type":"Point","coordinates":[-74.01604,40.71385]},"properties":{"level":"parent","id":14,"rank":14,"users":5,"peak":0.388,"prom":0.27,"radius_m":120,"peak_at":[-74.01608,40.7134],"name":"Vesey Green"}},{"type":"Feature","geometry":{"type":"Point","coordinates":[-74.00738,40.71332]},"properties":{"level":"parent","id":15,"rank":15,"users":8,"peak":0.432,"prom":0.159,"radius_m":196,"peak_at":[-74.00745,40.714],"name":"Woolworth Building"}},{"type":"Feature","geometry":{"type":"Point","coordinates":[-73.98826,40.74459]},"properties":{"level":"parent","id":16,"rank":16,"users":21,"peak":0.484,"prom":0.0,"radius_m":360,"peak_at":[-73.99298,40.74131],"name":"Poster House"}},{"type":"Feature","geometry":{"type":"Point","coordinates":[-74.00074,40.74163]},"properties":{"level":"parent","id":17,"rank":17,"users":7,"peak":0.329,"prom":0.0,"radius_m":170,"peak_at":[-73.99867,40.74101],"name":"Rubin Museum of Art"}},{"type":"Feature","geometry":{"type":"Point","coordinates":[-73.98786,40.72098]},"properties":{"level":"child","parent":2,"users":27,"peak":1.0,"prom":0.174,"radius_m":230,"peak_at":[-73.98802,40.72106],"name":"Richard Taittinger Gallery"}},{"type":"Feature","geometry":{"type":"Point","coordinates":[-73.98913,40.73009]},"properties":{"level":"child","parent":2,"users":38,"peak":0.889,"prom":0.063,"radius_m":250,"peak_at":[-73.98955,40.72876],"name":"The Ukrainian Museum"}},{"type":"Feature","geometry":{"type":"Point","coordinates":[-73.99223,40.725]},"properties":{"level":"child","parent":2,"users":19,"peak":0.826,"prom":0.0,"radius_m":170,"peak_at":[-73.99075,40.72463],"name":"Liz Christy Community Garden"}},{"type":"Feature","geometry":{"type":"Point","coordinates":[-73.98281,40.72685]},"properties":{"level":"child","parent":2,"users":9,"peak":0.68,"prom":0.068,"radius_m":138,"peak_at":[-73.98267,40.72632],"name":"Samuel Sullivan Cox"}},{"type":"Feature","geometry":{"type":"Point","coordinates":[-73.99351,40.72114]},"properties":{"level":"child","parent":2,"users":13,"peak":0.616,"prom":0.0,"radius_m":120,"peak_at":[-73.99318,40.72107],"name":"New Museum"}},{"type":"Feature","geometry":{"type":"Point","coordinates":[-73.96187,40.71648]},"properties":{"level":"child","parent":12,"users":5,"peak":0.647,"prom":0.256,"radius_m":138,"peak_at":[-73.96229,40.71677],"name":"William Sheridan Playground"}},{"type":"Feature","geometry":{"type":"Point","coordinates":[-73.98601,40.75752]},"properties":{"level":"child","parent":0,"users":27,"peak":0.937,"prom":0.221,"radius_m":250,"peak_at":[-73.98509,40.75712],"name":"Times Square"}},{"type":"Feature","geometry":{"type":"Point","coordinates":[-73.98152,40.76162]},"properties":{"level":"child","parent":0,"users":15,"peak":0.716,"prom":0.0,"radius_m":240,"peak_at":[-73.97991,40.76001],"name":"Rockefeller Center"}},{"type":"Feature","geometry":{"type":"Point","coordinates":[-73.99359,40.75108]},"properties":{"level":"child","parent":0,"users":12,"peak":0.716,"prom":0.381,"radius_m":120,"peak_at":[-73.99351,40.7505],"name":"Madison Square Garden"}},{"type":"Feature","geometry":{"type":"Point","coordinates":[-74.00206,40.70664]},"properties":{"level":"child","parent":5,"users":6,"peak":0.677,"prom":0.481,"radius_m":120,"peak_at":[-74.0024,40.70585],"name":"Ambrose"}},{"type":"Feature","geometry":{"type":"Point","coordinates":[-73.98042,40.67646]},"properties":{"level":"child","parent":1,"users":7,"peak":0.876,"prom":0.676,"radius_m":170,"peak_at":[-73.98016,40.6762],"name":"Park Slope Playground"}}]}