{"type":"FeatureCollection","features":[{"type":"Feature","geometry":{"type":"Point","coordinates":[-73.99324,40.72774]},"properties":{"level":"parent","id":0,"rank":0,"users":293,"peak":1.0,"prom":0.362,"radius_m":1118,"peak_at":[-73.98671,40.72915],"name":"East Village"}},{"type":"Feature","geometry":{"type":"Point","coordinates":[-74.00327,40.67198]},"properties":{"level":"parent","id":1,"rank":1,"users":7,"peak":0.752,"prom":0.614,"radius_m":183,"peak_at":[-74.00327,40.67175],"name":"Red Hook Park"}},{"type":"Feature","geometry":{"type":"Point","coordinates":[-73.98319,40.75918]},"properties":{"level":"parent","id":2,"rank":2,"users":145,"peak":0.811,"prom":0.36,"radius_m":867,"peak_at":[-73.98621,40.75733],"name":"Manhattan"}},{"type":"Feature","geometry":{"type":"Point","coordinates":[-73.91409,40.77385]},"properties":{"level":"parent","id":3,"rank":3,"users":10,"peak":0.753,"prom":0.317,"radius_m":240,"peak_at":[-73.91587,40.77297],"name":"Hoyt Playground"}},{"type":"Feature","geometry":{"type":"Point","coordinates":[-73.89502,40.74668]},"properties":{"level":"parent","id":4,"rank":4,"users":8,"peak":0.628,"prom":0.462,"radius_m":250,"peak_at":[-73.89682,40.74618],"name":"69th Street"}},{"type":"Feature","geometry":{"type":"Point","coordinates":[-73.98616,40.7478]},"properties":{"level":"parent","id":5,"rank":5,"users":18,"peak":0.616,"prom":0.289,"radius_m":230,"peak_at":[-73.98707,40.74777],"name":"Koreatown"}},{"type":"Feature","geometry":{"type":"Point","coordinates":[-74.00545,40.74158]},"properties":{"level":"parent","id":6,"rank":6,"users":19,"peak":0.638,"prom":0.238,"radius_m":250,"peak_at":[-74.00494,40.74146],"name":"14th Street Square"}},{"type":"Feature","geometry":{"type":"Point","coordinates":[-73.99413,40.70316]},"properties":{"level":"parent","id":7,"rank":7,"users":16,"peak":0.567,"prom":0.305,"radius_m":170,"peak_at":[-73.9943,40.70365],"name":"Jane's Carousel"}},{"type":"Feature","geometry":{"type":"Point","coordinates":[-73.92264,40.76315]},"properties":{"level":"parent","id":8,"rank":8,"users":5,"peak":0.628,"prom":0.209,"radius_m":230,"peak_at":[-73.92072,40.76308],"name":"Trinity Lutheran Church"}},{"type":"Feature","geometry":{"type":"Point","coordinates":[-73.93521,40.69663]},"properties":{"level":"parent","id":9,"rank":9,"users":4,"peak":0.409,"prom":0.409,"radius_m":138,"peak_at":[-73.93498,40.69686],"name":"Beattie Triangle"}},{"type":"Feature","geometry":{"type":"Point","coordinates":[-73.97614,40.78635]},"properties":{"level":"parent","id":10,"rank":10,"users":24,"peak":0.544,"prom":0.177,"radius_m":454,"peak_at":[-73.97771,40.78461],"name":"Children's Museum of Manhattan"}},{"type":"Feature","geometry":{"type":"Point","coordinates":[-73.98158,40.67521]},"properties":{"level":"parent","id":11,"rank":11,"users":19,"peak":0.592,"prom":0.05,"radius_m":373,"peak_at":[-73.9844,40.67116],"name":"Old Stone House"}},{"type":"Feature","geometry":{"type":"Point","coordinates":[-73.959,40.7174]},"properties":{"level":"parent","id":12,"rank":12,"users":20,"peak":0.501,"prom":0.163,"radius_m":277,"peak_at":[-73.95822,40.71757],"name":"Bedford Avenue"}},{"type":"Feature","geometry":{"type":"Point","coordinates":[-73.96576,40.80572]},"properties":{"level":"parent","id":13,"rank":13,"users":6,"peak":0.438,"prom":0.225,"radius_m":155,"peak_at":[-73.96547,40.80566],"name":"Broadway Presbyterian Church"}},{"type":"Feature","geometry":{"type":"Point","coordinates":[-73.98278,40.66555]},"properties":{"level":"parent","id":14,"rank":14,"users":8,"peak":0.525,"prom":0.071,"radius_m":183,"peak_at":[-73.98295,40.66552],"name":"7th Avenue"}},{"type":"Feature","geometry":{"type":"Point","coordinates":[-74.00244,40.70666]},"properties":{"level":"parent","id":15,"rank":15,"users":8,"peak":0.408,"prom":0.174,"radius_m":170,"peak_at":[-74.00198,40.70653],"name":"Ambrose"}},{"type":"Feature","geometry":{"type":"Point","coordinates":[-73.92431,40.75714]},"properties":{"level":"parent","id":16,"rank":16,"users":5,"peak":0.419,"prom":0.105,"radius_m":155,"peak_at":[-73.92389,40.75829],"name":"Museum of the Moving Image"}},{"type":"Feature","geometry":{"type":"Point","coordinates":[-73.97612,40.75186]},"properties":{"level":"parent","id":17,"rank":17,"users":14,"peak":0.451,"prom":0.044,"radius_m":196,"peak_at":[-73.97679,40.75205],"name":"Grand Central Terminal"}},{"type":"Feature","geometry":{"type":"Point","coordinates":[-73.99755,40.74344]},"properties":{"level":"parent","id":18,"rank":18,"users":15,"peak":0.451,"prom":0.0,"radius_m":240,"peak_at":[-73.99772,40.74238],"name":"18th Street"}},{"type":"Feature","geometry":{"type":"Point","coordinates":[-73.96694,40.76196]},"properties":{"level":"parent","id":19,"rank":19,"users":8,"peak":0.406,"prom":0.037,"radius_m":155,"peak_at":[-73.96702,40.76268],"name":"Lexington Avenue\u201359th Street"}},{"type":"Feature","geometry":{"type":"Point","coordinates":[-74.00996,40.70487]},"properties":{"level":"parent","id":20,"rank":20,"users":5,"peak":0.317,"prom":0.136,"radius_m":155,"peak_at":[-74.01021,40.70441],"name":"Vietnam Veterans Plaza"}},{"type":"Feature","geometry":{"type":"Point","coordinates":[-73.98206,40.74209]},"properties":{"level":"parent","id":21,"rank":21,"users":10,"peak":0.403,"prom":0.0,"radius_m":170,"peak_at":[-73.98358,40.74192],"name":"Rose Hill"}},{"type":"Feature","geometry":{"type":"Point","coordinates":[-74.00233,40.74629]},"properties":{"level":"parent","id":22,"rank":22,"users":7,"peak":0.375,"prom":0.0,"radius_m":138,"peak_at":[-74.00179,40.74603],"name":"Chelsea"}},{"type":"Feature","geometry":{"type":"Point","coordinates":[-73.98367,40.77197]},"properties":{"level":"parent","id":23,"rank":23,"users":5,"peak":0.369,"prom":0.0,"radius_m":138,"peak_at":[-73.98328,40.77142],"name":"Dante Park"}},{"type":"Feature","geometry":{"type":"Point","coordinates":[-73.95698,40.714]},"properties":{"level":"parent","id":24,"rank":24,"users":5,"peak":0.338,"prom":0.0,"radius_m":138,"peak_at":[-73.95735,40.71296],"name":"Ascenzi Square"}},{"type":"Feature","geometry":{"type":"Point","coordinates":[-73.95126,40.7785]},"properties":{"level":"parent","id":25,"rank":25,"users":5,"peak":0.306,"prom":0.023,"radius_m":170,"peak_at":[-73.95181,40.77788],"name":"86th Street"}},{"type":"Feature","geometry":{"type":"Point","coordinates":[-74.00713,40.71504]},"properties":{"level":"parent","id":26,"rank":26,"users":8,"peak":0.305,"prom":0.018,"radius_m":120,"peak_at":[-74.007,40.71451],"name":"Lower Manhattan"}},{"type":"Feature","geometry":{"type":"Point","coordinates":[-73.98595,40.75799]},"properties":{"level":"child","parent":2,"users":33,"peak":0.811,"prom":0.196,"radius_m":230,"peak_at":[-73.98621,40.75733],"name":"Times Square"}},{"type":"Feature","geometry":{"type":"Point","coordinates":[-73.98256,40.7681]},"properties":{"level":"child","parent":2,"users":8,"peak":0.659,"prom":0.217,"radius_m":120,"peak_at":[-73.98256,40.7681],"name":"Museum of Arts and Design"}},{"type":"Feature","geometry":{"type":"Point","coordinates":[-73.98145,40.76313]},"properties":{"level":"child","parent":2,"users":14,"peak":0.615,"prom":0.0,"radius_m":183,"peak_at":[-73.98142,40.76215],"name":"7th Avenue"}},{"type":"Feature","geometry":{"type":"Point","coordinates":[-73.97732,40.76132]},"properties":{"level":"child","parent":2,"users":7,"peak":0.609,"prom":0.0,"radius_m":120,"peak_at":[-73.97684,40.76125],"name":"MoMA"}},{"type":"Feature","geometry":{"type":"Point","coordinates":[-73.99065,40.7559]},"properties":{"level":"child","parent":2,"users":3,"peak":0.527,"prom":0.0,"radius_m":120,"peak_at":[-73.99065,40.7559],"name":"Madame Tussauds New York"}},{"type":"Feature","geometry":{"type":"Point","coordinates":[-73.98669,40.72879]},"properties":{"level":"child","parent":0,"users":71,"peak":1.0,"prom":0.42,"radius_m":339,"peak_at":[-73.98671,40.72915],"name":"The Ukrainian Museum"}},{"type":"Feature","geometry":{"type":"Point","coordinates":[-73.99084,40.73581]},"properties":{"level":"child","parent":0,"users":46,"peak":0.982,"prom":0.495,"radius_m":219,"peak_at":[-73.99099,40.73546],"name":"Union Square Park"}},{"type":"Feature","geometry":{"type":"Point","coordinates":[-73.99654,40.72248]},"properties":{"level":"child","parent":0,"users":36,"peak":0.88,"prom":0.277,"radius_m":230,"peak_at":[-73.99574,40.72173],"name":"Desalvio Playground"}},{"type":"Feature","geometry":{"type":"Point","coordinates":[-74.00196,40.72975]},"properties":{"level":"child","parent":0,"users":44,"peak":0.799,"prom":0.24,"radius_m":250,"peak_at":[-74.00278,40.73044],"name":"Father Demo Square"}},{"type":"Feature","geometry":{"type":"Point","coordinates":[-73.99809,40.71682]},"properties":{"level":"child","parent":0,"users":25,"peak":0.733,"prom":0.0,"radius_m":208,"peak_at":[-73.99822,40.71615],"name":"Columbus Park"}},{"type":"Feature","geometry":{"type":"Point","coordinates":[-73.9881,40.72095]},"properties":{"level":"child","parent":0,"users":31,"peak":0.705,"prom":0.067,"radius_m":208,"peak_at":[-73.98845,40.72148],"name":"Peretz Square"}},{"type":"Feature","geometry":{"type":"Point","coordinates":[-74.00537,40.74165]},"properties":{"level":"child","parent":6,"users":13,"peak":0.638,"prom":0.302,"radius_m":138,"peak_at":[-74.00494,40.74146],"name":"14th Street Square"}},{"type":"Feature","geometry":{"type":"Point","coordinates":[-73.95822,40.71757]},"properties":{"level":"child","parent":12,"users":3,"peak":0.501,"prom":0.036,"radius_m":120,"peak_at":[-73.95822,40.71757],"name":"Bedford Avenue"}},{"type":"Feature","geometry":{"type":"Point","coordinates":[-73.89678,40.74645]},"properties":{"level":"child","parent":4,"users":5,"peak":0.628,"prom":0.314,"radius_m":138,"peak_at":[-73.89682,40.74618],"name":"69th Street"}},{"type":"Feature","geometry":{"type":"Point","coordinates":[-73.98584,40.74761]},"properties":{"level":"child","parent":5,"users":8,"peak":0.616,"prom":0.34,"radius_m":120,"peak_at":[-73.98707,40.74777],"name":"Empire State Building"}},{"type":"Feature","geometry":{"type":"Point","coordinates":[-73.92132,40.76353]},"properties":{"level":"child","parent":8,"users":3,"peak":0.628,"prom":0.253,"radius_m":120,"peak_at":[-73.92072,40.76308],"name":"Trinity Lutheran Church"}},{"type":"Feature","geometry":{"type":"Point","coordinates":[-73.98475,40.67104]},"properties":{"level":"child","parent":11,"users":5,"peak":0.592,"prom":0.26,"radius_m":120,"peak_at":[-73.9844,40.67116],"name":"Old Stone House"}},{"type":"Feature","geometry":{"type":"Point","coordinates":[-73.98258,40.66584]},"properties":{"level":"child","parent":14,"users":4,"peak":0.525,"prom":0.071,"radius_m":120,"peak_at":[-73.98221,40.66616],"name":"7th Avenue"}}]}