{"type":"FeatureCollection","features":[{"type":"Feature","geometry":{"type":"Point","coordinates":[-73.99293,40.72755]},"properties":{"level":"parent","id":0,"rank":0,"users":267,"peak":1.0,"prom":0.597,"radius_m":929,"peak_at":[-73.98671,40.72915],"name":"East Village","type":"nightlife"}},{"type":"Feature","geometry":{"type":"Point","coordinates":[-74.00338,40.67177]},"properties":{"level":"parent","id":1,"rank":1,"users":7,"peak":0.752,"prom":0.614,"radius_m":155,"peak_at":[-74.00327,40.67175],"name":"Red Hook Park","type":"nature"}},{"type":"Feature","geometry":{"type":"Point","coordinates":[-73.91436,40.77369]},"properties":{"level":"parent","id":2,"rank":2,"users":9,"peak":0.753,"prom":0.317,"radius_m":208,"peak_at":[-73.91587,40.77297],"name":"Hoyt Playground","type":"nature"}},{"type":"Feature","geometry":{"type":"Point","coordinates":[-73.98416,40.75908]},"properties":{"level":"parent","id":3,"rank":3,"users":111,"peak":0.811,"prom":0.152,"radius_m":642,"peak_at":[-73.98621,40.75733],"name":"Manhattan","type":"nightlife"}},{"type":"Feature","geometry":{"type":"Point","coordinates":[-73.89649,40.74658]},"properties":{"level":"parent","id":4,"rank":4,"users":6,"peak":0.628,"prom":0.314,"radius_m":170,"peak_at":[-73.89682,40.74618],"name":"69th Street","type":"nightlife"}},{"type":"Feature","geometry":{"type":"Point","coordinates":[-73.98611,40.74781]},"properties":{"level":"parent","id":5,"rank":5,"users":18,"peak":0.616,"prom":0.289,"radius_m":208,"peak_at":[-73.98707,40.74777],"name":"Koreatown","type":"nightlife"}},{"type":"Feature","geometry":{"type":"Point","coordinates":[-74.00535,40.74143]},"properties":{"level":"parent","id":6,"rank":6,"users":17,"peak":0.638,"prom":0.238,"radius_m":219,"peak_at":[-74.00494,40.74146],"name":"14th Street Square","type":"nature"}},{"type":"Feature","geometry":{"type":"Point","coordinates":[-73.99409,40.70319]},"properties":{"level":"parent","id":7,"rank":7,"users":14,"peak":0.567,"prom":0.305,"radius_m":138,"peak_at":[-73.9943,40.70365],"name":"Jane's Carousel","type":"culture"}},{"type":"Feature","geometry":{"type":"Point","coordinates":[-73.98263,40.76832]},"properties":{"level":"parent","id":8,"rank":8,"users":13,"peak":0.659,"prom":0.154,"radius_m":155,"peak_at":[-73.98256,40.7681],"name":"Museum of Arts and Design","type":"culture"}},{"type":"Feature","geometry":{"type":"Point","coordinates":[-73.97616,40.78713]},"properties":{"level":"parent","id":9,"rank":9,"users":15,"peak":0.544,"prom":0.177,"radius_m":277,"peak_at":[-73.97771,40.78461],"name":"Children's Museum of Manhattan","type":"culture"}},{"type":"Feature","geometry":{"type":"Point","coordinates":[-73.98424,40.67117]},"properties":{"level":"parent","id":10,"rank":10,"users":5,"peak":0.592,"prom":0.05,"radius_m":155,"peak_at":[-73.9844,40.67116],"name":"Old Stone House","type":"culture"}},{"type":"Feature","geometry":{"type":"Point","coordinates":[-73.95898,40.71743]},"properties":{"level":"parent","id":11,"rank":11,"users":16,"peak":0.501,"prom":0.163,"radius_m":208,"peak_at":[-73.95822,40.71757],"name":"Bedford Avenue","type":"food"}},{"type":"Feature","geometry":{"type":"Point","coordinates":[-73.96552,40.80603]},"properties":{"level":"parent","id":12,"rank":12,"users":5,"peak":0.438,"prom":0.225,"radius_m":120,"peak_at":[-73.96547,40.80566],"name":"Broadway Presbyterian Church","type":"culture"}},{"type":"Feature","geometry":{"type":"Point","coordinates":[-73.98282,40.66533]},"properties":{"level":"parent","id":13,"rank":13,"users":7,"peak":0.525,"prom":0.071,"radius_m":155,"peak_at":[-73.98295,40.66552],"name":"11th Street Park Slope Brooklyn NY","type":"nature"}},{"type":"Feature","geometry":{"type":"Point","coordinates":[-73.97705,40.75248]},"properties":{"level":"parent","id":14,"rank":14,"users":9,"peak":0.451,"prom":0.053,"radius_m":120,"peak_at":[-73.97679,40.75205],"name":"Grand Central Terminal","type":"culture"}},{"type":"Feature","geometry":{"type":"Point","coordinates":[-73.9781,40.67989]},"properties":{"level":"parent","id":15,"rank":15,"users":5,"peak":0.455,"prom":0.017,"radius_m":120,"peak_at":[-73.97829,40.67947],"name":"Hope Community, NYC","type":"culture"}},{"type":"Feature","geometry":{"type":"Point","coordinates":[-73.97058,40.75615]},"properties":{"level":"parent","id":16,"rank":16,"users":5,"peak":0.432,"prom":0.044,"radius_m":138,"peak_at":[-73.97002,40.75558],"name":"Greenacre Park","type":"nature"}},{"type":"Feature","geometry":{"type":"Point","coordinates":[-73.99775,40.74279]},"properties":{"level":"parent","id":17,"rank":17,"users":8,"peak":0.451,"prom":0.0,"radius_m":155,"peak_at":[-73.99772,40.74238],"name":"18th Street","type":"food"}},{"type":"Feature","geometry":{"type":"Point","coordinates":[-73.98239,40.74194]},"properties":{"level":"parent","id":18,"rank":18,"users":9,"peak":0.403,"prom":0.0,"radius_m":120,"peak_at":[-73.98358,40.74192],"name":"Rose Hill","type":"nightlife"}},{"type":"Feature","geometry":{"type":"Point","coordinates":[-74.00415,40.73647]},"properties":{"level":"parent","id":19,"rank":19,"users":5,"peak":0.362,"prom":0.0,"radius_m":120,"peak_at":[-74.00326,40.73699],"name":"Abingdon Square","type":"nature"}},{"type":"Feature","geometry":{"type":"Point","coordinates":[-73.98635,40.72877]},"properties":{"level":"child","parent":0,"users":64,"peak":1.0,"prom":0.42,"radius_m":302,"peak_at":[-73.98671,40.72915],"name":"Saint Mark's in-the-Bowery","type":"culture"}},{"type":"Feature","geometry":{"type":"Point","coordinates":[-73.99112,40.73585]},"properties":{"level":"child","parent":0,"users":41,"peak":0.982,"prom":0.506,"radius_m":183,"peak_at":[-73.99099,40.73546],"name":"Union Square Park","type":"nature"}},{"type":"Feature","geometry":{"type":"Point","coordinates":[-73.99584,40.72197]},"properties":{"level":"child","parent":0,"users":29,"peak":0.88,"prom":0.277,"radius_m":170,"peak_at":[-73.99574,40.72173],"name":"Desalvio Playground","type":"nature"}},{"type":"Feature","geometry":{"type":"Point","coordinates":[-74.00201,40.73052]},"properties":{"level":"child","parent":0,"users":26,"peak":0.799,"prom":0.272,"radius_m":138,"peak_at":[-74.00278,40.73044],"name":"Father Demo Square","type":"nature"}},{"type":"Feature","geometry":{"type":"Point","coordinates":[-73.99852,40.71662]},"properties":{"level":"child","parent":0,"users":19,"peak":0.733,"prom":0.019,"radius_m":155,"peak_at":[-73.99822,40.71615],"name":"Columbus Park","type":"nature"}},{"type":"Feature","geometry":{"type":"Point","coordinates":[-73.98775,40.72088]},"properties":{"level":"child","parent":0,"users":24,"peak":0.705,"prom":0.236,"radius_m":138,"peak_at":[-73.98845,40.72148],"name":"Peretz Square","type":"nature"}},{"type":"Feature","geometry":{"type":"Point","coordinates":[-73.98633,40.75764]},"properties":{"level":"child","parent":3,"users":25,"peak":0.811,"prom":0.268,"radius_m":196,"peak_at":[-73.98621,40.75733],"name":"Times Square","type":"culture"}},{"type":"Feature","geometry":{"type":"Point","coordinates":[-73.97684,40.76125]},"properties":{"level":"child","parent":3,"users":3,"peak":0.609,"prom":0.0,"radius_m":120,"peak_at":[-73.97684,40.76125],"name":"MoMA","type":"culture"}},{"type":"Feature","geometry":{"type":"Point","coordinates":[-74.00494,40.74146]},"properties":{"level":"child","parent":6,"users":4,"peak":0.638,"prom":0.187,"radius_m":120,"peak_at":[-74.00494,40.74146],"name":"14th Street Square","type":"nature"}},{"type":"Feature","geometry":{"type":"Point","coordinates":[-73.98707,40.74777]},"properties":{"level":"child","parent":5,"users":6,"peak":0.616,"prom":0.259,"radius_m":120,"peak_at":[-73.98707,40.74777],"name":"Empire State Building","type":"culture"}},{"type":"Feature","geometry":{"type":"Point","coordinates":[-74.00327,40.67175]},"properties":{"level":"child","parent":1,"users":5,"peak":0.752,"prom":0.542,"radius_m":120,"peak_at":[-74.00327,40.67175],"name":"Red Hook Park","type":"nature"}},{"type":"Feature","geometry":{"type":"Point","coordinates":[-73.98256,40.7681]},"properties":{"level":"child","parent":8,"users":8,"peak":0.659,"prom":0.217,"radius_m":120,"peak_at":[-73.98256,40.7681],"name":"Museum of Arts and Design","type":"culture"}}]}