{"type":"FeatureCollection","features":[{"type":"Feature","geometry":{"type":"Point","coordinates":[-74.04497,40.68953]},"properties":{"level":"parent","id":0,"rank":0,"users":88,"peak":0.953,"prom":0.748,"radius_m":230,"peak_at":[-74.04454,40.68928],"name":"Statue of Liberty"}},{"type":"Feature","geometry":{"type":"Point","coordinates":[-73.97658,40.76114]},"properties":{"level":"parent","id":1,"rank":1,"users":220,"peak":0.981,"prom":0.607,"radius_m":432,"peak_at":[-73.9771,40.76111],"name":"MoMA"}},{"type":"Feature","geometry":{"type":"Point","coordinates":[-73.96342,40.77899]},"properties":{"level":"parent","id":2,"rank":2,"users":166,"peak":1.0,"prom":0.463,"radius_m":259,"peak_at":[-73.96326,40.77936],"name":"The Metropolitan Museum of Art"}},{"type":"Feature","geometry":{"type":"Point","coordinates":[-73.965,40.67171]},"properties":{"level":"parent","id":3,"rank":3,"users":18,"peak":0.824,"prom":0.65,"radius_m":268,"peak_at":[-73.9638,40.67098],"name":"Brooklyn Museum"}},{"type":"Feature","geometry":{"type":"Point","coordinates":[-73.98924,40.7032]},"properties":{"level":"parent","id":4,"rank":4,"users":26,"peak":0.802,"prom":0.519,"radius_m":339,"peak_at":[-73.98882,40.70332],"name":"Dumbo"}},{"type":"Feature","geometry":{"type":"Point","coordinates":[-73.99376,40.72453]},"properties":{"level":"parent","id":5,"rank":5,"users":203,"peak":0.851,"prom":0.405,"radius_m":939,"peak_at":[-73.9944,40.7213],"name":"Little Italy"}},{"type":"Feature","geometry":{"type":"Point","coordinates":[-73.97336,40.78111]},"properties":{"level":"parent","id":6,"rank":6,"users":75,"peak":0.716,"prom":0.543,"radius_m":219,"peak_at":[-73.97361,40.78098],"name":"American Museum of Natural History"}},{"type":"Feature","geometry":{"type":"Point","coordinates":[-74.01184,40.70733]},"properties":{"level":"parent","id":7,"rank":7,"users":121,"peak":0.745,"prom":0.461,"radius_m":558,"peak_at":[-74.01555,40.70341],"name":"Castle Clinton"}},{"type":"Feature","geometry":{"type":"Point","coordinates":[-73.98851,40.74279]},"properties":{"level":"parent","id":8,"rank":8,"users":40,"peak":0.693,"prom":0.487,"radius_m":240,"peak_at":[-73.98885,40.74221],"name":"Madison Square Park"}},{"type":"Feature","geometry":{"type":"Point","coordinates":[-74.00527,40.748]},"properties":{"level":"parent","id":9,"rank":9,"users":28,"peak":0.699,"prom":0.362,"radius_m":317,"peak_at":[-74.00622,40.74737],"name":"Matthew Marks Gallery"}},{"type":"Feature","geometry":{"type":"Point","coordinates":[-73.92547,40.82744]},"properties":{"level":"parent","id":10,"rank":10,"users":8,"peak":0.618,"prom":0.435,"radius_m":240,"peak_at":[-73.92548,40.82801],"name":"The Yankees Museum"}},{"type":"Feature","geometry":{"type":"Point","coordinates":[-73.95953,40.71679]},"properties":{"level":"parent","id":11,"rank":11,"users":44,"peak":0.642,"prom":0.35,"radius_m":513,"peak_at":[-73.95936,40.71684],"name":"Conners Square"}},{"type":"Feature","geometry":{"type":"Point","coordinates":[-73.96342,40.81336]},"properties":{"level":"parent","id":12,"rank":12,"users":11,"peak":0.741,"prom":0.085,"radius_m":208,"peak_at":[-73.96348,40.81345],"name":"General Grant National Memorial"}},{"type":"Feature","geometry":{"type":"Point","coordinates":[-73.96183,40.80831]},"properties":{"level":"parent","id":13,"rank":13,"users":11,"peak":0.715,"prom":0.0,"radius_m":219,"peak_at":[-73.96202,40.80793],"name":"Alma Mater"}},{"type":"Feature","geometry":{"type":"Point","coordinates":[-73.94607,40.74559]},"properties":{"level":"parent","id":14,"rank":14,"users":26,"peak":0.489,"prom":0.334,"radius_m":196,"peak_at":[-73.94581,40.74532],"name":"MoMA PS1"}},{"type":"Feature","geometry":{"type":"Point","coordinates":[-73.98183,40.76788]},"properties":{"level":"parent","id":15,"rank":15,"users":37,"peak":0.527,"prom":0.269,"radius_m":155,"peak_at":[-73.98156,40.76817],"name":"Christopher Columbus Monument"}},{"type":"Feature","geometry":{"type":"Point","coordinates":[-73.96784,40.75103]},"properties":{"level":"parent","id":16,"rank":16,"users":22,"peak":0.423,"prom":0.307,"radius_m":155,"peak_at":[-73.96747,40.751],"name":"United Nations Headquarters"}},{"type":"Feature","geometry":{"type":"Point","coordinates":[-73.98947,40.67785]},"properties":{"level":"parent","id":17,"rank":17,"users":5,"peak":0.434,"prom":0.26,"radius_m":155,"peak_at":[-73.98937,40.67831],"name":"Carroll Street Bridge"}},{"type":"Feature","geometry":{"type":"Point","coordinates":[-74.00083,40.76461]},"properties":{"level":"parent","id":18,"rank":18,"users":11,"peak":0.396,"prom":0.29,"radius_m":155,"peak_at":[-74.00095,40.7649],"name":"USS Intrepid"}},{"type":"Feature","geometry":{"type":"Point","coordinates":[-73.93644,40.76825]},"properties":{"level":"parent","id":19,"rank":19,"users":8,"peak":0.369,"prom":0.294,"radius_m":120,"peak_at":[-73.93658,40.7686],"name":"Socrates Sculpture Park"}},{"type":"Feature","geometry":{"type":"Point","coordinates":[-74.03959,40.69922]},"properties":{"level":"parent","id":20,"rank":20,"users":8,"peak":0.352,"prom":0.315,"radius_m":120,"peak_at":[-74.03976,40.69914],"name":"Ellis Island Immigration Museum"}},{"type":"Feature","geometry":{"type":"Point","coordinates":[-73.95877,40.78328]},"properties":{"level":"parent","id":21,"rank":21,"users":68,"peak":0.561,"prom":0.0,"radius_m":170,"peak_at":[-73.95869,40.78371],"name":"Guggenheim Museum"}},{"type":"Feature","geometry":{"type":"Point","coordinates":[-74.00545,40.7406]},"properties":{"level":"parent","id":22,"rank":22,"users":26,"peak":0.536,"prom":0.0,"radius_m":277,"peak_at":[-74.00701,40.73961],"name":"Whitney Museum of American Art"}},{"type":"Feature","geometry":{"type":"Point","coordinates":[-73.95235,40.79301]},"properties":{"level":"parent","id":23,"rank":23,"users":11,"peak":0.351,"prom":0.276,"radius_m":138,"peak_at":[-73.95215,40.79256],"name":"Museum of the City of New York"}},{"type":"Feature","geometry":{"type":"Point","coordinates":[-73.97312,40.77414]},"properties":{"level":"parent","id":24,"rank":24,"users":28,"peak":0.423,"prom":0.123,"radius_m":250,"peak_at":[-73.97104,40.7741],"name":"Bethesda Fountain"}},{"type":"Feature","geometry":{"type":"Point","coordinates":[-74.00029,40.70675]},"properties":{"level":"parent","id":25,"rank":25,"users":20,"peak":0.495,"prom":0.0,"radius_m":250,"peak_at":[-74.00235,40.70646],"name":"Ambrose"}},{"type":"Feature","geometry":{"type":"Point","coordinates":[-74.01655,40.68989]},"properties":{"level":"parent","id":26,"rank":26,"users":7,"peak":0.363,"prom":0.195,"radius_m":196,"peak_at":[-74.01554,40.69009],"name":"Fort Jay"}},{"type":"Feature","geometry":{"type":"Point","coordinates":[-73.98474,40.75528]},"properties":{"level":"parent","id":27,"rank":27,"users":57,"peak":0.487,"prom":0.0,"radius_m":332,"peak_at":[-73.98808,40.75656],"name":"Madame Tussauds New York"}},{"type":"Feature","geometry":{"type":"Point","coordinates":[-73.95092,40.71364]},"properties":{"level":"parent","id":28,"rank":28,"users":7,"peak":0.311,"prom":0.0,"radius_m":155,"peak_at":[-73.94984,40.71406],"name":"Lorimer Street"}},{"type":"Feature","geometry":{"type":"Point","coordinates":[-73.96622,40.7745]},"properties":{"level":"parent","id":29,"rank":29,"users":8,"peak":0.301,"prom":0.0,"radius_m":138,"peak_at":[-73.96768,40.77447],"name":"Bethesda Fountain"}},{"type":"Feature","geometry":{"type":"Point","coordinates":[-73.98422,40.76144]},"properties":{"level":"parent","id":30,"rank":30,"users":5,"peak":0.296,"prom":0.0,"radius_m":120,"peak_at":[-73.98401,40.76199],"name":"50th Street"}},{"type":"Feature","geometry":{"type":"Point","coordinates":[-73.99177,40.75099]},"properties":{"level":"parent","id":31,"rank":31,"users":10,"peak":0.287,"prom":0.012,"radius_m":196,"peak_at":[-73.9919,40.74995],"name":"Madison Square Garden"}},{"type":"Feature","geometry":{"type":"Point","coordinates":[-73.99113,40.7144]},"properties":{"level":"parent","id":32,"rank":32,"users":8,"peak":0.277,"prom":0.0,"radius_m":138,"peak_at":[-73.99172,40.71492],"name":"Museum at Eldridge Street"}},{"type":"Feature","geometry":{"type":"Point","coordinates":[-73.98628,40.74881]},"properties":{"level":"parent","id":33,"rank":33,"users":8,"peak":0.275,"prom":0.0,"radius_m":120,"peak_at":[-73.98692,40.74914],"name":"Greeley Square"}},{"type":"Feature","geometry":{"type":"Point","coordinates":[-73.99657,40.72297]},"properties":{"level":"child","parent":5,"users":104,"peak":0.851,"prom":0.349,"radius_m":459,"peak_at":[-73.9944,40.7213],"name":"Sperone Westwater"}},{"type":"Feature","geometry":{"type":"Point","coordinates":[-73.98426,40.72738]},"properties":{"level":"child","parent":5,"users":14,"peak":0.573,"prom":0.015,"radius_m":183,"peak_at":[-73.98301,40.72741],"name":"Samuel Sullivan Cox"}},{"type":"Feature","geometry":{"type":"Point","coordinates":[-73.99017,40.73027]},"properties":{"level":"child","parent":5,"users":12,"peak":0.558,"prom":0.023,"radius_m":120,"peak_at":[-73.99079,40.73011],"name":"Cooper Triangle"}},{"type":"Feature","geometry":{"type":"Point","coordinates":[-73.99101,40.7353]},"properties":{"level":"child","parent":5,"users":22,"peak":0.516,"prom":0.156,"radius_m":120,"peak_at":[-73.99101,40.7353],"name":"Union Square Park"}},{"type":"Feature","geometry":{"type":"Point","coordinates":[-73.98881,40.70323]},"properties":{"level":"child","parent":4,"users":19,"peak":0.802,"prom":0.532,"radius_m":240,"peak_at":[-73.98882,40.70332],"name":"Brooklyn Bridge Viewpoint"}},{"type":"Feature","geometry":{"type":"Point","coordinates":[-73.95929,40.71593]},"properties":{"level":"child","parent":11,"users":15,"peak":0.642,"prom":0.181,"radius_m":196,"peak_at":[-73.95936,40.71684],"name":"Bedford Avenue"}},{"type":"Feature","geometry":{"type":"Point","coordinates":[-74.00583,40.74738]},"properties":{"level":"child","parent":9,"users":17,"peak":0.699,"prom":0.344,"radius_m":196,"peak_at":[-74.00622,40.74737],"name":"Matthew Marks Gallery"}},{"type":"Feature","geometry":{"type":"Point","coordinates":[-74.01367,40.70532]},"properties":{"level":"child","parent":7,"users":67,"peak":0.745,"prom":0.329,"radius_m":285,"peak_at":[-74.01555,40.70341],"name":"Castle Clinton"}},{"type":"Feature","geometry":{"type":"Point","coordinates":[-73.92519,40.82756]},"properties":{"level":"child","parent":10,"users":3,"peak":0.618,"prom":0.349,"radius_m":120,"peak_at":[-73.92548,40.82801],"name":"The Yankees Museum"}},{"type":"Feature","geometry":{"type":"Point","coordinates":[-73.96328,40.81361]},"properties":{"level":"child","parent":12,"users":8,"peak":0.741,"prom":0.381,"radius_m":138,"peak_at":[-73.96348,40.81345],"name":"General Grant National Memorial"}},{"type":"Feature","geometry":{"type":"Point","coordinates":[-74.00667,40.74003]},"properties":{"level":"child","parent":22,"users":7,"peak":0.536,"prom":0.163,"radius_m":120,"peak_at":[-74.00701,40.73961],"name":"Whitney Museum of American Art"}},{"type":"Feature","geometry":{"type":"Point","coordinates":[-73.98156,40.76817]},"properties":{"level":"child","parent":15,"users":15,"peak":0.527,"prom":0.313,"radius_m":120,"peak_at":[-73.98156,40.76817],"name":"Christopher Columbus Monument"}}]}