{"type":"FeatureCollection","features":[{"type":"Feature","geometry":{"type":"Point","coordinates":[2.37819,48.86656]},"properties":{"level":"parent","id":0,"rank":0,"users":9,"peak":1.0,"prom":0.811,"radius_m":183,"peak_at":[2.37808,48.86596],"name":"Square Georges Sarre","type":"nature"}},{"type":"Feature","geometry":{"type":"Point","coordinates":[2.39205,48.89314]},"properties":{"level":"parent","id":1,"rank":1,"users":15,"peak":0.959,"prom":0.726,"radius_m":302,"peak_at":[2.39314,48.89426],"name":"Argonaute","type":"culture"}},{"type":"Feature","geometry":{"type":"Point","coordinates":[2.28885,48.86235]},"properties":{"level":"parent","id":2,"rank":2,"users":5,"peak":0.732,"prom":0.732,"radius_m":196,"peak_at":[2.28865,48.86213],"name":"Palais de Chaillot","type":"culture"}},{"type":"Feature","geometry":{"type":"Point","coordinates":[2.37027,48.85366]},"properties":{"level":"parent","id":3,"rank":3,"users":13,"peak":0.866,"prom":0.378,"radius_m":285,"peak_at":[2.36906,48.85371],"name":"July Column","type":"culture"}},{"type":"Feature","geometry":{"type":"Point","coordinates":[2.34161,48.88321]},"properties":{"level":"parent","id":4,"rank":4,"users":13,"peak":0.764,"prom":0.444,"radius_m":285,"peak_at":[2.33974,48.88253],"name":"Pigalle Square","type":"nightlife"}},{"type":"Feature","geometry":{"type":"Point","coordinates":[2.37859,48.83262]},"properties":{"level":"parent","id":5,"rank":5,"users":5,"peak":0.622,"prom":0.622,"radius_m":155,"peak_at":[2.37926,48.83318],"name":"Pont de Tolbiac","type":"culture"}},{"type":"Feature","geometry":{"type":"Point","coordinates":[2.29628,48.86563]},"properties":{"level":"parent","id":6,"rank":6,"users":2,"peak":0.61,"prom":0.61,"radius_m":138,"peak_at":[2.29629,48.86549],"name":"Galliera Museum","type":"culture"}},{"type":"Feature","geometry":{"type":"Point","coordinates":[2.39198,48.86833]},"properties":{"level":"parent","id":7,"rank":7,"users":6,"peak":0.588,"prom":0.494,"radius_m":138,"peak_at":[2.39191,48.86855],"name":"M\u00e9nilmontant","type":"nightlife"}},{"type":"Feature","geometry":{"type":"Point","coordinates":[2.44463,48.83748]},"properties":{"level":"parent","id":8,"rank":8,"users":3,"peak":0.542,"prom":0.542,"radius_m":170,"peak_at":[2.44439,48.8371],"name":"Parc Floral de Paris","type":"nature"}},{"type":"Feature","geometry":{"type":"Point","coordinates":[2.2401,48.89133]},"properties":{"level":"parent","id":9,"rank":9,"users":4,"peak":0.542,"prom":0.542,"radius_m":196,"peak_at":[2.2409,48.89092],"name":"La D\u00e9fense","type":"food"}},{"type":"Feature","geometry":{"type":"Point","coordinates":[2.25178,48.84152]},"properties":{"level":"parent","id":10,"rank":10,"users":2,"peak":0.542,"prom":0.542,"radius_m":138,"peak_at":[2.25248,48.84101],"name":"Parc des Princes","type":"nature"}},{"type":"Feature","geometry":{"type":"Point","coordinates":[2.40322,48.85972]},"properties":{"level":"parent","id":11,"rank":11,"users":9,"peak":0.533,"prom":0.533,"radius_m":170,"peak_at":[2.40272,48.85946],"name":"Square Henri-Karcher","type":"nature"}},{"type":"Feature","geometry":{"type":"Point","coordinates":[2.35056,48.85984]},"properties":{"level":"parent","id":12,"rank":12,"users":14,"peak":0.733,"prom":0.15,"radius_m":391,"peak_at":[2.34773,48.85907],"name":"Saint-Jacques Tower","type":"culture"}},{"type":"Feature","geometry":{"type":"Point","coordinates":[2.37833,48.83881]},"properties":{"level":"parent","id":13,"rank":13,"users":5,"peak":0.533,"prom":0.383,"radius_m":138,"peak_at":[2.3784,48.83859],"name":"Accor Arena","type":"nightlife"}},{"type":"Feature","geometry":{"type":"Point","coordinates":[2.36007,48.92465]},"properties":{"level":"parent","id":14,"rank":14,"users":3,"peak":0.466,"prom":0.466,"radius_m":120,"peak_at":[2.36007,48.92465],"name":"Stade de France","type":"nightlife"}},{"type":"Feature","geometry":{"type":"Point","coordinates":[2.347,48.85215]},"properties":{"level":"parent","id":15,"rank":15,"users":9,"peak":0.658,"prom":0.107,"radius_m":240,"peak_at":[2.34688,48.85191],"name":"Square Ren\u00e9 Viviani","type":"nature"}},{"type":"Feature","geometry":{"type":"Point","coordinates":[2.33141,48.86994]},"properties":{"level":"parent","id":16,"rank":16,"users":10,"peak":0.658,"prom":0.0,"radius_m":259,"peak_at":[2.33203,48.86934],"name":"Place Gaillon","type":"nightlife"}},{"type":"Feature","geometry":{"type":"Point","coordinates":[2.33432,48.86453]},"properties":{"level":"parent","id":17,"rank":17,"users":9,"peak":0.658,"prom":0.0,"radius_m":230,"peak_at":[2.33444,48.86482],"name":"1st Arrondissement","type":"culture"}},{"type":"Feature","geometry":{"type":"Point","coordinates":[2.29938,48.83206]},"properties":{"level":"parent","id":18,"rank":18,"users":1,"peak":0.361,"prom":0.361,"radius_m":120,"peak_at":[2.29938,48.83206],"name":"Parc Georges Brassens","type":"nature"}},{"type":"Feature","geometry":{"type":"Point","coordinates":[2.47427,48.83592]},"properties":{"level":"parent","id":19,"rank":19,"users":1,"peak":0.361,"prom":0.361,"radius_m":120,"peak_at":[2.47427,48.83592],"name":"Square du Petit Vin Blanc","type":"nature"}},{"type":"Feature","geometry":{"type":"Point","coordinates":[2.28992,48.79155]},"properties":{"level":"parent","id":20,"rank":20,"users":1,"peak":0.361,"prom":0.361,"radius_m":120,"peak_at":[2.28992,48.79155],"name":"Parc Sainte-Barbe","type":"nature"}},{"type":"Feature","geometry":{"type":"Point","coordinates":[2.25234,48.81693]},"properties":{"level":"parent","id":21,"rank":21,"users":1,"peak":0.361,"prom":0.361,"radius_m":120,"peak_at":[2.25234,48.81693],"name":"\u00c9glise Sainte-Lucie","type":"culture"}},{"type":"Feature","geometry":{"type":"Point","coordinates":[2.28502,48.9187]},"properties":{"level":"parent","id":22,"rank":22,"users":1,"peak":0.361,"prom":0.361,"radius_m":120,"peak_at":[2.28502,48.9187],"name":"A\u00e9rodrome de Pontoise","type":"culture"}},{"type":"Feature","geometry":{"type":"Point","coordinates":[2.2846,48.88729]},"properties":{"level":"parent","id":23,"rank":23,"users":1,"peak":0.361,"prom":0.361,"radius_m":120,"peak_at":[2.2846,48.88729],"name":"Carrefour Bineau","type":"food"}},{"type":"Feature","geometry":{"type":"Point","coordinates":[2.21357,48.87042]},"properties":{"level":"parent","id":24,"rank":24,"users":1,"peak":0.361,"prom":0.361,"radius_m":120,"peak_at":[2.21357,48.87042],"name":"M\u00e9morial de la France combattante","type":"culture"}},{"type":"Feature","geometry":{"type":"Point","coordinates":[2.32923,48.90592]},"properties":{"level":"parent","id":25,"rank":25,"users":1,"peak":0.361,"prom":0.361,"radius_m":120,"peak_at":[2.32923,48.90592],"name":"Garibaldi","type":"food"}},{"type":"Feature","geometry":{"type":"Point","coordinates":[2.2578,48.83796]},"properties":{"level":"parent","id":26,"rank":26,"users":1,"peak":0.361,"prom":0.361,"radius_m":120,"peak_at":[2.2578,48.83796],"name":"Porte de Saint-Cloud","type":"nature"}},{"type":"Feature","geometry":{"type":"Point","coordinates":[2.36285,48.79334]},"properties":{"level":"parent","id":27,"rank":27,"users":1,"peak":0.361,"prom":0.361,"radius_m":120,"peak_at":[2.36285,48.79334],"name":"\u00c9glise Saint-Cyr et Sainte-Julitte","type":"culture"}},{"type":"Feature","geometry":{"type":"Point","coordinates":[2.23306,48.85737]},"properties":{"level":"parent","id":28,"rank":28,"users":1,"peak":0.361,"prom":0.361,"radius_m":120,"peak_at":[2.23306,48.85737],"name":"Hippodrome de Longchamp","type":"culture"}},{"type":"Feature","geometry":{"type":"Point","coordinates":[2.24327,48.85473]},"properties":{"level":"parent","id":29,"rank":29,"users":1,"peak":0.361,"prom":0.361,"radius_m":120,"peak_at":[2.24327,48.85473]}},{"type":"Feature","geometry":{"type":"Point","coordinates":[2.27503,48.8297]},"properties":{"level":"parent","id":30,"rank":30,"users":1,"peak":0.361,"prom":0.361,"radius_m":120,"peak_at":[2.27503,48.8297],"name":"Parc Suzanne Lenglen","type":"nature"}},{"type":"Feature","geometry":{"type":"Point","coordinates":[2.45022,48.86493]},"properties":{"level":"parent","id":31,"rank":31,"users":1,"peak":0.361,"prom":0.361,"radius_m":120,"peak_at":[2.45022,48.86493],"name":"Maison Populaire","type":"culture"}},{"type":"Feature","geometry":{"type":"Point","coordinates":[2.22198,48.82936]},"properties":{"level":"parent","id":32,"rank":32,"users":1,"peak":0.361,"prom":0.361,"radius_m":120,"peak_at":[2.22198,48.82936],"name":"Mus\u00e9e National de C\u00e9ramique","type":"culture"}},{"type":"Feature","geometry":{"type":"Point","coordinates":[2.31704,48.91108]},"properties":{"level":"parent","id":33,"rank":33,"users":1,"peak":0.361,"prom":0.361,"radius_m":120,"peak_at":[2.31704,48.91108],"name":"GardenGarden","type":"nature"}},{"type":"Feature","geometry":{"type":"Point","coordinates":[2.33896,48.85396]},"properties":{"level":"parent","id":34,"rank":34,"users":7,"peak":0.551,"prom":0.062,"radius_m":230,"peak_at":[2.33925,48.85243],"name":"Od\u00e9on","type":"culture"}},{"type":"Feature","geometry":{"type":"Point","coordinates":[2.34939,48.84414]},"properties":{"level":"parent","id":35,"rank":35,"users":5,"peak":0.426,"prom":0.213,"radius_m":155,"peak_at":[2.34925,48.84518],"name":"Presbyt\u00e8re","type":"culture"}},{"type":"Feature","geometry":{"type":"Point","coordinates":[2.36912,48.86241]},"properties":{"level":"parent","id":36,"rank":36,"users":7,"peak":0.439,"prom":0.061,"radius_m":183,"peak_at":[2.36759,48.86145],"name":"Saint-S\u00e9bastien - Froissart","type":"nightlife"}},{"type":"Feature","geometry":{"type":"Point","coordinates":[2.33444,48.86482]},"properties":{"level":"child","parent":17,"users":5,"peak":0.658,"prom":0.338,"radius_m":120,"peak_at":[2.33444,48.86482],"name":"\u00c9glise Saint-Roch","type":"culture"}},{"type":"Feature","geometry":{"type":"Point","coordinates":[2.36971,48.85364]},"properties":{"level":"child","parent":3,"users":7,"peak":0.866,"prom":0.378,"radius_m":155,"peak_at":[2.36906,48.85371],"name":"July Column","type":"culture"}},{"type":"Feature","geometry":{"type":"Point","coordinates":[2.39256,48.89432]},"properties":{"level":"child","parent":1,"users":8,"peak":0.959,"prom":0.308,"radius_m":155,"peak_at":[2.39314,48.89426],"name":"Argonaute","type":"culture"}},{"type":"Feature","geometry":{"type":"Point","coordinates":[2.34722,48.85947]},"properties":{"level":"child","parent":12,"users":5,"peak":0.733,"prom":0.071,"radius_m":120,"peak_at":[2.34773,48.85907],"name":"Saint-Jacques Tower","type":"culture"}},{"type":"Feature","geometry":{"type":"Point","coordinates":[2.35086,48.86201]},"properties":{"level":"child","parent":12,"users":4,"peak":0.661,"prom":0.0,"radius_m":120,"peak_at":[2.35019,48.86254],"name":"\u00c9glise Saint-Leu - Saint-Gilles","type":"culture"}},{"type":"Feature","geometry":{"type":"Point","coordinates":[2.33227,48.86993]},"properties":{"level":"child","parent":16,"users":3,"peak":0.658,"prom":0.125,"radius_m":120,"peak_at":[2.33203,48.86934],"name":"Place Gaillon","type":"nightlife"}},{"type":"Feature","geometry":{"type":"Point","coordinates":[2.32835,48.87028]},"properties":{"level":"child","parent":16,"users":3,"peak":0.533,"prom":0.0,"radius_m":120,"peak_at":[2.32835,48.87028],"name":"Madeleine","type":"food"}},{"type":"Feature","geometry":{"type":"Point","coordinates":[2.34784,48.85253]},"properties":{"level":"child","parent":15,"users":5,"peak":0.658,"prom":0.319,"radius_m":138,"peak_at":[2.34688,48.85191],"name":"Square Ren\u00e9 Viviani","type":"nature"}},{"type":"Feature","geometry":{"type":"Point","coordinates":[2.40272,48.85946]},"properties":{"level":"child","parent":11,"users":4,"peak":0.533,"prom":0.094,"radius_m":120,"peak_at":[2.40272,48.85946],"name":"Square Henri-Karcher","type":"nature"}}]}