{"type":"FeatureCollection","features":[{"type":"Feature","geometry":{"type":"Point","coordinates":[2.33691,48.8471]},"properties":{"level":"parent","id":0,"rank":0,"users":42,"peak":1.0,"prom":0.864,"radius_m":317,"peak_at":[2.33728,48.84697],"name":"Luxembourg Garden"}},{"type":"Feature","geometry":{"type":"Point","coordinates":[2.34043,48.85777]},"properties":{"level":"parent","id":1,"rank":1,"users":189,"peak":0.941,"prom":0.551,"radius_m":807,"peak_at":[2.34922,48.85297],"name":"Cathedral of Notre Dame"}},{"type":"Feature","geometry":{"type":"Point","coordinates":[2.29518,48.86045]},"properties":{"level":"parent","id":2,"rank":2,"users":61,"peak":0.872,"prom":0.546,"radius_m":398,"peak_at":[2.29468,48.85821],"name":"Eiffel Tower"}},{"type":"Feature","geometry":{"type":"Point","coordinates":[2.42368,48.81589]},"properties":{"level":"parent","id":3,"rank":3,"users":1,"peak":0.552,"prom":0.552,"radius_m":170,"peak_at":[2.4243,48.81572],"name":"\u00c9glise Sainte-Agn\u00e8s"}},{"type":"Feature","geometry":{"type":"Point","coordinates":[2.22945,48.82601]},"properties":{"level":"parent","id":4,"rank":4,"users":1,"peak":0.552,"prom":0.414,"radius_m":183,"peak_at":[2.22959,48.826],"name":"Pont Renault"}},{"type":"Feature","geometry":{"type":"Point","coordinates":[2.39054,48.89323]},"properties":{"level":"parent","id":5,"rank":5,"users":10,"peak":0.545,"prom":0.35,"radius_m":285,"peak_at":[2.39141,48.89347],"name":"Argonaute"}},{"type":"Feature","geometry":{"type":"Point","coordinates":[2.34296,48.88666]},"properties":{"level":"parent","id":6,"rank":6,"users":13,"peak":0.505,"prom":0.409,"radius_m":208,"peak_at":[2.34288,48.88579],"name":"Basilica of the Sacred Heart of Paris"}},{"type":"Feature","geometry":{"type":"Point","coordinates":[2.39323,48.86131]},"properties":{"level":"parent","id":7,"rank":7,"users":9,"peak":0.486,"prom":0.391,"radius_m":170,"peak_at":[2.39385,48.86138],"name":"P\u00e8re Lachaise Cemetery"}},{"type":"Feature","geometry":{"type":"Point","coordinates":[2.31583,48.85474]},"properties":{"level":"parent","id":8,"rank":8,"users":11,"peak":0.459,"prom":0.322,"radius_m":138,"peak_at":[2.31578,48.85526],"name":"Rodin Museum"}},{"type":"Feature","geometry":{"type":"Point","coordinates":[2.36446,48.85538]},"properties":{"level":"parent","id":9,"rank":9,"users":15,"peak":0.477,"prom":0.182,"radius_m":155,"peak_at":[2.36543,48.85562],"name":"Louis XIII"}},{"type":"Feature","geometry":{"type":"Point","coordinates":[2.37759,48.83481]},"properties":{"level":"parent","id":10,"rank":10,"users":7,"peak":0.417,"prom":0.227,"radius_m":196,"peak_at":[2.37786,48.83518],"name":"Passerelle Simone de Beauvoir"}},{"type":"Feature","geometry":{"type":"Point","coordinates":[2.31233,48.86392]},"properties":{"level":"parent","id":11,"rank":11,"users":16,"peak":0.443,"prom":0.145,"radius_m":208,"peak_at":[2.31315,48.86375],"name":"Pont Alexandre III"}},{"type":"Feature","geometry":{"type":"Point","coordinates":[2.29687,48.87343]},"properties":{"level":"parent","id":12,"rank":12,"users":8,"peak":0.384,"prom":0.143,"radius_m":170,"peak_at":[2.29524,48.87383],"name":"Tomb of the Unknown Soldier"}},{"type":"Feature","geometry":{"type":"Point","coordinates":[2.3455,48.86233]},"properties":{"level":"parent","id":13,"rank":13,"users":7,"peak":0.39,"prom":0.064,"radius_m":155,"peak_at":[2.34538,48.86176],"name":"Les Halles"}},{"type":"Feature","geometry":{"type":"Point","coordinates":[2.30103,48.85446]},"properties":{"level":"parent","id":14,"rank":14,"users":5,"peak":0.374,"prom":0.0,"radius_m":120,"peak_at":[2.30159,48.85395],"name":"Monument des Droits de l'Homme"}},{"type":"Feature","geometry":{"type":"Point","coordinates":[2.36112,48.84401]},"properties":{"level":"parent","id":15,"rank":15,"users":12,"peak":0.318,"prom":0.045,"radius_m":240,"peak_at":[2.35878,48.84401],"name":"Mus\u00e9um national d'histoire naturelle"}},{"type":"Feature","geometry":{"type":"Point","coordinates":[2.34944,48.85278]},"properties":{"level":"child","parent":1,"users":62,"peak":0.941,"prom":0.011,"radius_m":294,"peak_at":[2.34922,48.85297],"name":"Cathedral of Notre Dame"}},{"type":"Feature","geometry":{"type":"Point","coordinates":[2.33399,48.86039]},"properties":{"level":"child","parent":1,"users":82,"peak":0.931,"prom":0.367,"radius_m":366,"peak_at":[2.3411,48.85701],"name":"Pont Neuf"}},{"type":"Feature","geometry":{"type":"Point","coordinates":[2.34919,48.85625]},"properties":{"level":"child","parent":1,"users":7,"peak":0.553,"prom":0.0,"radius_m":138,"peak_at":[2.34988,48.85621],"name":"Pont Notre-Dame"}},{"type":"Feature","geometry":{"type":"Point","coordinates":[2.29458,48.8582]},"properties":{"level":"child","parent":2,"users":32,"peak":0.872,"prom":0.457,"radius_m":155,"peak_at":[2.29468,48.85821],"name":"Eiffel Tower"}},{"type":"Feature","geometry":{"type":"Point","coordinates":[2.39168,48.89303]},"properties":{"level":"child","parent":5,"users":3,"peak":0.545,"prom":0.041,"radius_m":120,"peak_at":[2.39141,48.89347],"name":"Argonaute"}},{"type":"Feature","geometry":{"type":"Point","coordinates":[2.34288,48.88579]},"properties":{"level":"child","parent":6,"users":5,"peak":0.505,"prom":0.098,"radius_m":120,"peak_at":[2.34288,48.88579],"name":"Basilica of the Sacred Heart of Paris"}}]}