{"type":"FeatureCollection","features":[{"type":"Feature","geometry":{"type":"Point","coordinates":[2.34376,48.85734]},"properties":{"level":"parent","id":0,"rank":0,"users":155,"peak":1.0,"prom":0.647,"radius_m":1170,"peak_at":[2.34328,48.85299],"name":"Latin Quarter"}},{"type":"Feature","geometry":{"type":"Point","coordinates":[2.23922,48.89177]},"properties":{"level":"parent","id":1,"rank":1,"users":4,"peak":0.699,"prom":0.699,"radius_m":196,"peak_at":[2.23876,48.89198],"name":"Mur v\u00e9g\u00e9tal"}},{"type":"Feature","geometry":{"type":"Point","coordinates":[2.3411,48.88583]},"properties":{"level":"parent","id":2,"rank":2,"users":25,"peak":0.826,"prom":0.423,"radius_m":366,"peak_at":[2.34212,48.88708],"name":"Mus\u00e9e de Montmartre"}},{"type":"Feature","geometry":{"type":"Point","coordinates":[2.3038,48.87052]},"properties":{"level":"parent","id":3,"rank":3,"users":23,"peak":0.727,"prom":0.473,"radius_m":404,"peak_at":[2.30193,48.87187],"name":"Champs-Elys\u00e9es"}},{"type":"Feature","geometry":{"type":"Point","coordinates":[2.30539,48.82701]},"properties":{"level":"parent","id":4,"rank":4,"users":3,"peak":0.525,"prom":0.525,"radius_m":170,"peak_at":[2.30455,48.8269],"name":"Jardin Monique Wittig"}},{"type":"Feature","geometry":{"type":"Point","coordinates":[2.34283,48.87198]},"properties":{"level":"parent","id":5,"rank":5,"users":6,"peak":0.487,"prom":0.318,"radius_m":183,"peak_at":[2.34309,48.87188],"name":"Mus\u00e9e Gr\u00e9vin"}},{"type":"Feature","geometry":{"type":"Point","coordinates":[2.31608,48.82876]},"properties":{"level":"parent","id":6,"rank":6,"users":1,"peak":0.35,"prom":0.35,"radius_m":120,"peak_at":[2.31608,48.82876],"name":"Square Fr\u00e9d\u00e9ric Bazille"}},{"type":"Feature","geometry":{"type":"Point","coordinates":[2.25235,48.8369]},"properties":{"level":"parent","id":7,"rank":7,"users":1,"peak":0.35,"prom":0.35,"radius_m":120,"peak_at":[2.25235,48.8369],"name":"Jardin de la Porte de Saint-Cloud"}},{"type":"Feature","geometry":{"type":"Point","coordinates":[2.25234,48.81693]},"properties":{"level":"parent","id":8,"rank":8,"users":1,"peak":0.35,"prom":0.35,"radius_m":120,"peak_at":[2.25234,48.81693],"name":"\u00c9glise Sainte-Lucie"}},{"type":"Feature","geometry":{"type":"Point","coordinates":[2.28685,48.82077]},"properties":{"level":"parent","id":9,"rank":9,"users":1,"peak":0.35,"prom":0.35,"radius_m":120,"peak_at":[2.28685,48.82077],"name":"\u00c9glise Saint-R\u00e9my"}},{"type":"Feature","geometry":{"type":"Point","coordinates":[2.39319,48.86138]},"properties":{"level":"parent","id":10,"rank":10,"users":2,"peak":0.35,"prom":0.35,"radius_m":120,"peak_at":[2.39319,48.86138],"name":"P\u00e8re Lachaise Cemetery"}},{"type":"Feature","geometry":{"type":"Point","coordinates":[2.30036,48.83817]},"properties":{"level":"parent","id":11,"rank":11,"users":1,"peak":0.35,"prom":0.35,"radius_m":120,"peak_at":[2.30036,48.83817],"name":"Square Jean Ch\u00e9rioux"}},{"type":"Feature","geometry":{"type":"Point","coordinates":[2.2461,48.83317]},"properties":{"level":"parent","id":12,"rank":12,"users":1,"peak":0.35,"prom":0.35,"radius_m":120,"peak_at":[2.2461,48.83317],"name":"Marcel Sembat"}},{"type":"Feature","geometry":{"type":"Point","coordinates":[2.27843,48.84798]},"properties":{"level":"parent","id":13,"rank":13,"users":1,"peak":0.35,"prom":0.35,"radius_m":120,"peak_at":[2.27843,48.84798],"name":"Pont Mirabeau"}},{"type":"Feature","geometry":{"type":"Point","coordinates":[2.40618,48.89649]},"properties":{"level":"parent","id":14,"rank":14,"users":1,"peak":0.35,"prom":0.35,"radius_m":120,"peak_at":[2.40618,48.89649],"name":"Square du 19 mars 1962"}},{"type":"Feature","geometry":{"type":"Point","coordinates":[2.28385,48.83252]},"properties":{"level":"parent","id":15,"rank":15,"users":1,"peak":0.35,"prom":0.35,"radius_m":120,"peak_at":[2.28385,48.83252],"name":"La Petite Ceinture du 15e"}},{"type":"Feature","geometry":{"type":"Point","coordinates":[2.44132,48.85527]},"properties":{"level":"parent","id":16,"rank":16,"users":1,"peak":0.35,"prom":0.35,"radius_m":120,"peak_at":[2.44132,48.85527],"name":"Square papa poule"}},{"type":"Feature","geometry":{"type":"Point","coordinates":[2.44469,48.83574]},"properties":{"level":"parent","id":17,"rank":17,"users":1,"peak":0.35,"prom":0.35,"radius_m":120,"peak_at":[2.44469,48.83574],"name":"Parc Floral de Paris"}},{"type":"Feature","geometry":{"type":"Point","coordinates":[2.37818,48.85016]},"properties":{"level":"parent","id":18,"rank":18,"users":5,"peak":0.368,"prom":0.192,"radius_m":155,"peak_at":[2.3782,48.84895],"name":"La Petite Mairie"}},{"type":"Feature","geometry":{"type":"Point","coordinates":[2.30145,48.87169]},"properties":{"level":"child","parent":3,"users":6,"peak":0.727,"prom":0.057,"radius_m":138,"peak_at":[2.30193,48.87187],"name":"Cabaret Lido"}},{"type":"Feature","geometry":{"type":"Point","coordinates":[2.30698,48.87044]},"properties":{"level":"child","parent":3,"users":8,"peak":0.669,"prom":0.0,"radius_m":138,"peak_at":[2.30687,48.86975],"name":"Champs \u00c9lys\u00e9es"}},{"type":"Feature","geometry":{"type":"Point","coordinates":[2.34526,48.85324]},"properties":{"level":"child","parent":0,"users":22,"peak":1.0,"prom":0.219,"radius_m":294,"peak_at":[2.34328,48.85299],"name":"Pont Saint-Michel"}},{"type":"Feature","geometry":{"type":"Point","coordinates":[2.3343,48.85355]},"properties":{"level":"child","parent":0,"users":22,"peak":0.978,"prom":0.0,"radius_m":277,"peak_at":[2.33363,48.85375],"name":"Mus\u00e9e national Eug\u00e8ne Delacroix"}},{"type":"Feature","geometry":{"type":"Point","coordinates":[2.34137,48.85712]},"properties":{"level":"child","parent":0,"users":6,"peak":0.781,"prom":0.0,"radius_m":155,"peak_at":[2.3411,48.85698],"name":"Pont Neuf"}},{"type":"Feature","geometry":{"type":"Point","coordinates":[2.33691,48.86085]},"properties":{"level":"child","parent":0,"users":7,"peak":0.741,"prom":0.233,"radius_m":120,"peak_at":[2.33595,48.86118],"name":"Louvre Museum"}},{"type":"Feature","geometry":{"type":"Point","coordinates":[2.35893,48.85647]},"properties":{"level":"child","parent":0,"users":13,"peak":0.727,"prom":0.219,"radius_m":155,"peak_at":[2.35743,48.85696],"name":"Maison \u00e0 l'enseigne du Mouton"}},{"type":"Feature","geometry":{"type":"Point","coordinates":[2.33454,48.86646]},"properties":{"level":"child","parent":0,"users":5,"peak":0.642,"prom":0.169,"radius_m":120,"peak_at":[2.33496,48.86567],"name":"Fontaine Moli\u00e8re"}},{"type":"Feature","geometry":{"type":"Point","coordinates":[2.34173,48.88636]},"properties":{"level":"child","parent":2,"users":13,"peak":0.826,"prom":0.423,"radius_m":208,"peak_at":[2.34212,48.88708],"name":"Basilica of the Sacred Heart of Paris"}}]}