{"type":"FeatureCollection","features":[{"type":"Feature","geometry":{"type":"Point","coordinates":[2.3493,48.86223]},"properties":{"level":"parent","id":0,"rank":0,"users":12,"peak":1.0,"prom":0.76,"radius_m":170,"peak_at":[2.34878,48.86273],"name":"Le Petit Bouillon Pharamond"}},{"type":"Feature","geometry":{"type":"Point","coordinates":[2.37122,48.8902]},"properties":{"level":"parent","id":1,"rank":1,"users":5,"peak":0.851,"prom":0.717,"radius_m":183,"peak_at":[2.37145,48.89014],"name":"Jardin de l'\u00eelot Riquet"}},{"type":"Feature","geometry":{"type":"Point","coordinates":[2.32994,48.86322]},"properties":{"level":"parent","id":2,"rank":2,"users":32,"peak":0.867,"prom":0.462,"radius_m":250,"peak_at":[2.32964,48.8628],"name":"Mus\u00e9e des Arts D\u00e9coratifs"}},{"type":"Feature","geometry":{"type":"Point","coordinates":[2.39274,48.89311]},"properties":{"level":"parent","id":3,"rank":3,"users":9,"peak":0.731,"prom":0.64,"radius_m":196,"peak_at":[2.39398,48.89272],"name":"Jardin des \u00c9quilibres"}},{"type":"Feature","geometry":{"type":"Point","coordinates":[2.3672,48.85742]},"properties":{"level":"parent","id":4,"rank":4,"users":8,"peak":0.756,"prom":0.504,"radius_m":208,"peak_at":[2.36757,48.85729],"name":"Jardin Arnaud Beltrame"}},{"type":"Feature","geometry":{"type":"Point","coordinates":[2.33172,48.85463]},"properties":{"level":"parent","id":5,"rank":5,"users":9,"peak":0.689,"prom":0.532,"radius_m":138,"peak_at":[2.33159,48.85418],"name":"Square Tarass-Chevtchenko"}},{"type":"Feature","geometry":{"type":"Point","coordinates":[2.35305,48.85061]},"properties":{"level":"parent","id":6,"rank":6,"users":15,"peak":0.829,"prom":0.315,"radius_m":196,"peak_at":[2.35501,48.8505],"name":"Tournelle Bridge"}},{"type":"Feature","geometry":{"type":"Point","coordinates":[2.32534,48.85116]},"properties":{"level":"parent","id":7,"rank":7,"users":6,"peak":0.662,"prom":0.537,"radius_m":138,"peak_at":[2.32468,48.85118],"name":"Square Boucicaut"}},{"type":"Feature","geometry":{"type":"Point","coordinates":[2.35386,48.88173]},"properties":{"level":"parent","id":8,"rank":8,"users":8,"peak":0.581,"prom":0.535,"radius_m":138,"peak_at":[2.35352,48.88109],"name":"Place Napol\u00e9on III"}},{"type":"Feature","geometry":{"type":"Point","coordinates":[2.38348,48.87104]},"properties":{"level":"parent","id":9,"rank":9,"users":5,"peak":0.662,"prom":0.396,"radius_m":138,"peak_at":[2.3833,48.87175],"name":"Synagogue de Belleville"}},{"type":"Feature","geometry":{"type":"Point","coordinates":[2.3788,48.86643]},"properties":{"level":"parent","id":10,"rank":10,"users":5,"peak":0.47,"prom":0.4,"radius_m":138,"peak_at":[2.37815,48.86598],"name":"Square Georges Sarre"}},{"type":"Feature","geometry":{"type":"Point","coordinates":[2.31519,48.90039]},"properties":{"level":"parent","id":11,"rank":11,"users":2,"peak":0.37,"prom":0.37,"radius_m":120,"peak_at":[2.31519,48.90039],"name":"\u00c9glise Notre-Dame-Auxiliatrice"}},{"type":"Feature","geometry":{"type":"Point","coordinates":[2.33937,48.85922]},"properties":{"level":"parent","id":12,"rank":12,"users":138,"peak":0.598,"prom":0.0,"radius_m":285,"peak_at":[2.34382,48.85785],"name":"Pont Neuf"}},{"type":"Feature","geometry":{"type":"Point","coordinates":[2.37861,48.83556]},"properties":{"level":"parent","id":13,"rank":13,"users":5,"peak":0.371,"prom":0.259,"radius_m":120,"peak_at":[2.37905,48.8358],"name":"Passerelle Simone de Beauvoir"}},{"type":"Feature","geometry":{"type":"Point","coordinates":[2.34459,48.8478]},"properties":{"level":"parent","id":14,"rank":14,"users":5,"peak":0.497,"prom":0.07,"radius_m":138,"peak_at":[2.34428,48.84709],"name":"5th Arrondissement"}},{"type":"Feature","geometry":{"type":"Point","coordinates":[2.34993,48.85537]},"properties":{"level":"parent","id":15,"rank":15,"users":7,"peak":0.54,"prom":0.0,"radius_m":120,"peak_at":[2.34851,48.85609],"name":"Pont Notre-Dame"}},{"type":"Feature","geometry":{"type":"Point","coordinates":[2.31152,48.86599]},"properties":{"level":"parent","id":16,"rank":16,"users":9,"peak":0.511,"prom":0.028,"radius_m":138,"peak_at":[2.31082,48.86606],"name":"Discovery Palace"}},{"type":"Feature","geometry":{"type":"Point","coordinates":[2.31268,48.85796]},"properties":{"level":"parent","id":17,"rank":17,"users":5,"peak":0.352,"prom":0.254,"radius_m":120,"peak_at":[2.31268,48.85796],"name":"Invalides"}},{"type":"Feature","geometry":{"type":"Point","coordinates":[2.28826,48.86205]},"properties":{"level":"parent","id":18,"rank":18,"users":15,"peak":0.317,"prom":0.183,"radius_m":120,"peak_at":[2.28807,48.86193],"name":"Palais de Chaillot"}},{"type":"Feature","geometry":{"type":"Point","coordinates":[2.34136,48.88715]},"properties":{"level":"parent","id":19,"rank":19,"users":6,"peak":0.284,"prom":0.0,"radius_m":120,"peak_at":[2.34221,48.88744],"name":"Mus\u00e9e de Montmartre"}},{"type":"Feature","geometry":{"type":"Point","coordinates":[2.33012,48.8629]},"properties":{"level":"child","parent":2,"users":21,"peak":0.867,"prom":0.462,"radius_m":170,"peak_at":[2.32964,48.8628],"name":"Tuileries Garden"}},{"type":"Feature","geometry":{"type":"Point","coordinates":[2.39288,48.89304]},"properties":{"level":"child","parent":3,"users":4,"peak":0.731,"prom":0.594,"radius_m":120,"peak_at":[2.39398,48.89272],"name":"Jardin des \u00c9quilibres"}},{"type":"Feature","geometry":{"type":"Point","coordinates":[2.34917,48.86254]},"properties":{"level":"child","parent":0,"users":4,"peak":1.0,"prom":0.851,"radius_m":120,"peak_at":[2.34878,48.86273],"name":"Le Petit Bouillon Pharamond"}},{"type":"Feature","geometry":{"type":"Point","coordinates":[2.35414,48.85081]},"properties":{"level":"child","parent":6,"users":10,"peak":0.829,"prom":0.315,"radius_m":120,"peak_at":[2.35501,48.8505],"name":"Tournelle Bridge"}},{"type":"Feature","geometry":{"type":"Point","coordinates":[2.38372,48.87108]},"properties":{"level":"child","parent":9,"users":3,"peak":0.662,"prom":0.396,"radius_m":120,"peak_at":[2.3833,48.87175],"name":"Synagogue de Belleville"}},{"type":"Feature","geometry":{"type":"Point","coordinates":[2.35373,48.88177]},"properties":{"level":"child","parent":8,"users":4,"peak":0.581,"prom":0.535,"radius_m":120,"peak_at":[2.35352,48.88109],"name":"Place Napol\u00e9on III"}},{"type":"Feature","geometry":{"type":"Point","coordinates":[2.32468,48.85118]},"properties":{"level":"child","parent":7,"users":3,"peak":0.662,"prom":0.616,"radius_m":120,"peak_at":[2.32468,48.85118],"name":"Square Boucicaut"}},{"type":"Feature","geometry":{"type":"Point","coordinates":[2.34294,48.85757]},"properties":{"level":"child","parent":12,"users":13,"peak":0.598,"prom":0.146,"radius_m":120,"peak_at":[2.34382,48.85785],"name":"Pont Neuf"}}]}