{"type":"FeatureCollection","features":[{"type":"Feature","geometry":{"type":"Point","coordinates":[2.34373,48.8557]},"properties":{"level":"parent","id":0,"rank":0,"users":91,"peak":1.0,"prom":0.259,"radius_m":801,"peak_at":[2.34328,48.85299],"name":"Latin Quarter"}},{"type":"Feature","geometry":{"type":"Point","coordinates":[2.23922,48.89177]},"properties":{"level":"parent","id":1,"rank":1,"users":4,"peak":0.699,"prom":0.699,"radius_m":196,"peak_at":[2.23876,48.89198],"name":"Mur v\u00e9g\u00e9tal"}},{"type":"Feature","geometry":{"type":"Point","coordinates":[2.34118,48.88591]},"properties":{"level":"parent","id":2,"rank":2,"users":22,"peak":0.826,"prom":0.423,"radius_m":346,"peak_at":[2.34212,48.88708],"name":"Mus\u00e9e de Montmartre"}},{"type":"Feature","geometry":{"type":"Point","coordinates":[2.30355,48.87071]},"properties":{"level":"parent","id":3,"rank":3,"users":20,"peak":0.727,"prom":0.473,"radius_m":346,"peak_at":[2.30193,48.87187],"name":"Champs-Elys\u00e9es"}},{"type":"Feature","geometry":{"type":"Point","coordinates":[2.30539,48.82701]},"properties":{"level":"parent","id":4,"rank":4,"users":3,"peak":0.525,"prom":0.525,"radius_m":170,"peak_at":[2.30455,48.8269],"name":"Jardin Monique Wittig"}},{"type":"Feature","geometry":{"type":"Point","coordinates":[2.33555,48.86508]},"properties":{"level":"parent","id":5,"rank":5,"users":25,"peak":0.741,"prom":0.149,"radius_m":398,"peak_at":[2.33595,48.86118],"name":"Louvre Museum"}},{"type":"Feature","geometry":{"type":"Point","coordinates":[2.35934,48.85647]},"properties":{"level":"parent","id":6,"rank":6,"users":15,"peak":0.727,"prom":0.169,"radius_m":250,"peak_at":[2.35743,48.85696],"name":"Maison \u00e0 l'enseigne du Mouton"}},{"type":"Feature","geometry":{"type":"Point","coordinates":[2.34296,48.87181]},"properties":{"level":"parent","id":7,"rank":7,"users":5,"peak":0.487,"prom":0.318,"radius_m":155,"peak_at":[2.34309,48.87188],"name":"Mus\u00e9e Gr\u00e9vin"}},{"type":"Feature","geometry":{"type":"Point","coordinates":[2.36913,48.85412]},"properties":{"level":"parent","id":8,"rank":8,"users":7,"peak":0.656,"prom":0.05,"radius_m":219,"peak_at":[2.36976,48.85366],"name":"July Column"}},{"type":"Feature","geometry":{"type":"Point","coordinates":[2.34967,48.84377]},"properties":{"level":"parent","id":9,"rank":9,"users":8,"peak":0.508,"prom":0.169,"radius_m":230,"peak_at":[2.34947,48.84446],"name":"Square Marius-Constant"}},{"type":"Feature","geometry":{"type":"Point","coordinates":[2.40618,48.89649]},"properties":{"level":"parent","id":10,"rank":10,"users":1,"peak":0.35,"prom":0.35,"radius_m":120,"peak_at":[2.40618,48.89649],"name":"Square du 19 mars 1962"}},{"type":"Feature","geometry":{"type":"Point","coordinates":[2.44469,48.83574]},"properties":{"level":"parent","id":11,"rank":11,"users":1,"peak":0.35,"prom":0.35,"radius_m":120,"peak_at":[2.44469,48.83574],"name":"Parc Floral de Paris"}},{"type":"Feature","geometry":{"type":"Point","coordinates":[2.44132,48.85527]},"properties":{"level":"parent","id":12,"rank":12,"users":1,"peak":0.35,"prom":0.35,"radius_m":120,"peak_at":[2.44132,48.85527],"name":"Square papa poule"}},{"type":"Feature","geometry":{"type":"Point","coordinates":[2.28385,48.83252]},"properties":{"level":"parent","id":13,"rank":13,"users":1,"peak":0.35,"prom":0.35,"radius_m":120,"peak_at":[2.28385,48.83252],"name":"La Petite Ceinture du 15e"}},{"type":"Feature","geometry":{"type":"Point","coordinates":[2.25234,48.81693]},"properties":{"level":"parent","id":14,"rank":14,"users":1,"peak":0.35,"prom":0.35,"radius_m":120,"peak_at":[2.25234,48.81693],"name":"\u00c9glise Sainte-Lucie"}},{"type":"Feature","geometry":{"type":"Point","coordinates":[2.2461,48.83317]},"properties":{"level":"parent","id":15,"rank":15,"users":1,"peak":0.35,"prom":0.35,"radius_m":120,"peak_at":[2.2461,48.83317],"name":"Marcel Sembat"}},{"type":"Feature","geometry":{"type":"Point","coordinates":[2.30036,48.83817]},"properties":{"level":"parent","id":16,"rank":16,"users":1,"peak":0.35,"prom":0.35,"radius_m":120,"peak_at":[2.30036,48.83817],"name":"Square Jean Ch\u00e9rioux"}},{"type":"Feature","geometry":{"type":"Point","coordinates":[2.27843,48.84798]},"properties":{"level":"parent","id":17,"rank":17,"users":1,"peak":0.35,"prom":0.35,"radius_m":120,"peak_at":[2.27843,48.84798],"name":"Pont Mirabeau"}},{"type":"Feature","geometry":{"type":"Point","coordinates":[2.28685,48.82077]},"properties":{"level":"parent","id":18,"rank":18,"users":1,"peak":0.35,"prom":0.35,"radius_m":120,"peak_at":[2.28685,48.82077],"name":"\u00c9glise Saint-R\u00e9my"}},{"type":"Feature","geometry":{"type":"Point","coordinates":[2.31608,48.82876]},"properties":{"level":"parent","id":19,"rank":19,"users":1,"peak":0.35,"prom":0.35,"radius_m":120,"peak_at":[2.31608,48.82876],"name":"Square Fr\u00e9d\u00e9ric Bazille"}},{"type":"Feature","geometry":{"type":"Point","coordinates":[2.39319,48.86138]},"properties":{"level":"parent","id":20,"rank":20,"users":2,"peak":0.35,"prom":0.35,"radius_m":120,"peak_at":[2.39319,48.86138],"name":"P\u00e8re Lachaise Cemetery"}},{"type":"Feature","geometry":{"type":"Point","coordinates":[2.25235,48.8369]},"properties":{"level":"parent","id":21,"rank":21,"users":1,"peak":0.35,"prom":0.35,"radius_m":120,"peak_at":[2.25235,48.8369],"name":"Jardin de la Porte de Saint-Cloud"}},{"type":"Feature","geometry":{"type":"Point","coordinates":[2.32736,48.86677]},"properties":{"level":"parent","id":22,"rank":22,"users":6,"peak":0.473,"prom":0.0,"radius_m":196,"peak_at":[2.32635,48.86652],"name":"Jeu de Paume"}},{"type":"Feature","geometry":{"type":"Point","coordinates":[2.33154,48.86067]},"properties":{"level":"parent","id":23,"rank":23,"users":5,"peak":0.423,"prom":0.0,"radius_m":183,"peak_at":[2.33253,48.86065],"name":"Tunnel des Tuileries"}},{"type":"Feature","geometry":{"type":"Point","coordinates":[2.34524,48.85327]},"properties":{"level":"child","parent":0,"users":22,"peak":1.0,"prom":0.219,"radius_m":277,"peak_at":[2.34328,48.85299],"name":"Pont Saint-Michel"}},{"type":"Feature","geometry":{"type":"Point","coordinates":[2.33436,48.85354]},"properties":{"level":"child","parent":0,"users":21,"peak":0.978,"prom":0.0,"radius_m":219,"peak_at":[2.33363,48.85375],"name":"Square Laurent Prache"}},{"type":"Feature","geometry":{"type":"Point","coordinates":[2.34165,48.85708]},"properties":{"level":"child","parent":0,"users":5,"peak":0.781,"prom":0.0,"radius_m":120,"peak_at":[2.3411,48.85698],"name":"Pont Neuf"}},{"type":"Feature","geometry":{"type":"Point","coordinates":[2.35206,48.8602]},"properties":{"level":"child","parent":0,"users":3,"peak":0.642,"prom":0.134,"radius_m":120,"peak_at":[2.3512,48.86026],"name":"Centre Pompidou"}},{"type":"Feature","geometry":{"type":"Point","coordinates":[2.34698,48.86506]},"properties":{"level":"child","parent":0,"users":4,"peak":0.593,"prom":0.0,"radius_m":120,"peak_at":[2.34705,48.8654],"name":"Tour de Jean-sans-Peur"}},{"type":"Feature","geometry":{"type":"Point","coordinates":[2.35678,48.85192]},"properties":{"level":"child","parent":0,"users":3,"peak":0.557,"prom":0.05,"radius_m":120,"peak_at":[2.35678,48.85192],"name":"Mus\u00e9e Adam Mickiewicz"}},{"type":"Feature","geometry":{"type":"Point","coordinates":[2.35936,48.85643]},"properties":{"level":"child","parent":6,"users":10,"peak":0.727,"prom":0.374,"radius_m":138,"peak_at":[2.35743,48.85696],"name":"Maison \u00e0 l'enseigne du Mouton"}},{"type":"Feature","geometry":{"type":"Point","coordinates":[2.30145,48.87169]},"properties":{"level":"child","parent":3,"users":6,"peak":0.727,"prom":0.057,"radius_m":138,"peak_at":[2.30193,48.87187],"name":"Cabaret Lido"}},{"type":"Feature","geometry":{"type":"Point","coordinates":[2.30698,48.87044]},"properties":{"level":"child","parent":3,"users":8,"peak":0.669,"prom":0.0,"radius_m":138,"peak_at":[2.30687,48.86975],"name":"Champs \u00c9lys\u00e9es"}},{"type":"Feature","geometry":{"type":"Point","coordinates":[2.34172,48.8864]},"properties":{"level":"child","parent":2,"users":11,"peak":0.826,"prom":0.438,"radius_m":183,"peak_at":[2.34212,48.88708],"name":"Basilica of the Sacred Heart of Paris"}},{"type":"Feature","geometry":{"type":"Point","coordinates":[2.33691,48.86085]},"properties":{"level":"child","parent":5,"users":7,"peak":0.741,"prom":0.233,"radius_m":120,"peak_at":[2.33595,48.86118],"name":"Louvre Museum"}},{"type":"Feature","geometry":{"type":"Point","coordinates":[2.33426,48.86621]},"properties":{"level":"child","parent":5,"users":4,"peak":0.642,"prom":0.169,"radius_m":120,"peak_at":[2.33496,48.86567],"name":"Fontaine Moli\u00e8re"}}]}