{"type":"FeatureCollection","features":[{"type":"Feature","geometry":{"type":"Point","coordinates":[12.45495,41.9042]},"properties":{"level":"parent","id":0,"rank":0,"users":119,"peak":1.0,"prom":0.741,"radius_m":360,"peak_at":[12.45498,41.90314],"name":"Apostolic Palace","type":"culture"}},{"type":"Feature","geometry":{"type":"Point","coordinates":[12.48579,41.8927]},"properties":{"level":"parent","id":1,"rank":1,"users":83,"peak":0.908,"prom":0.432,"radius_m":385,"peak_at":[12.4827,41.89353],"name":"Capitoline Museums","type":"culture"}},{"type":"Feature","geometry":{"type":"Point","coordinates":[12.46585,41.83653]},"properties":{"level":"parent","id":2,"rank":2,"users":6,"peak":0.674,"prom":0.458,"radius_m":183,"peak_at":[12.46596,41.83657],"name":"Palazzo della Civilt\u00e0 del Lavoro","type":"culture"}},{"type":"Feature","geometry":{"type":"Point","coordinates":[12.46587,41.90197]},"properties":{"level":"parent","id":3,"rank":3,"users":36,"peak":0.741,"prom":0.227,"radius_m":219,"peak_at":[12.46635,41.90257],"name":"Castle of the Holy Angel","type":"culture"}},{"type":"Feature","geometry":{"type":"Point","coordinates":[12.4576,41.93333]},"properties":{"level":"parent","id":4,"rank":4,"users":5,"peak":0.548,"prom":0.366,"radius_m":196,"peak_at":[12.45738,41.93376],"name":"Foro Italico","type":"nightlife"}},{"type":"Feature","geometry":{"type":"Point","coordinates":[12.49672,41.90272]},"properties":{"level":"parent","id":5,"rank":5,"users":27,"peak":0.481,"prom":0.301,"radius_m":277,"peak_at":[12.49696,41.90323],"name":"Baths of Diocletian","type":"culture"}},{"type":"Feature","geometry":{"type":"Point","coordinates":[12.47546,41.89923]},"properties":{"level":"parent","id":6,"rank":6,"users":36,"peak":0.551,"prom":0.116,"radius_m":250,"peak_at":[12.47698,41.89873],"name":"Pantheon","type":"culture"}},{"type":"Feature","geometry":{"type":"Point","coordinates":[12.48308,41.9007]},"properties":{"level":"parent","id":7,"rank":7,"users":25,"peak":0.435,"prom":0.0,"radius_m":138,"peak_at":[12.4833,41.90102],"name":"Trevi Fountain","type":"culture"}},{"type":"Feature","geometry":{"type":"Point","coordinates":[12.47614,41.90559]},"properties":{"level":"parent","id":8,"rank":8,"users":9,"peak":0.342,"prom":0.092,"radius_m":120,"peak_at":[12.47543,41.90583],"name":"Museo dell'Ara Pacis","type":"culture"}},{"type":"Feature","geometry":{"type":"Point","coordinates":[12.47622,41.91064]},"properties":{"level":"parent","id":9,"rank":9,"users":7,"peak":0.313,"prom":0.085,"radius_m":120,"peak_at":[12.47627,41.91083],"name":"Piazza del Popolo","type":"culture"}},{"type":"Feature","geometry":{"type":"Point","coordinates":[12.48152,41.90548]},"properties":{"level":"parent","id":10,"rank":10,"users":5,"peak":0.273,"prom":0.0,"radius_m":120,"peak_at":[12.48235,41.90581],"name":"Keats-Shelley Memorial House","type":"culture"}},{"type":"Feature","geometry":{"type":"Point","coordinates":[12.48335,41.89398]},"properties":{"level":"child","parent":1,"users":58,"peak":0.908,"prom":0.469,"radius_m":196,"peak_at":[12.4827,41.89353],"name":"Capitoline Museums","type":"culture"}},{"type":"Feature","geometry":{"type":"Point","coordinates":[12.49144,41.89039]},"properties":{"level":"child","parent":1,"users":23,"peak":0.62,"prom":0.181,"radius_m":120,"peak_at":[12.49105,41.89075],"name":"pedestal of colossus of Nero","type":"culture"}},{"type":"Feature","geometry":{"type":"Point","coordinates":[12.47692,41.89865]},"properties":{"level":"child","parent":6,"users":8,"peak":0.551,"prom":0.066,"radius_m":120,"peak_at":[12.47698,41.89873],"name":"Pantheon","type":"culture"}},{"type":"Feature","geometry":{"type":"Point","coordinates":[12.45738,41.93376]},"properties":{"level":"child","parent":4,"users":3,"peak":0.548,"prom":0.183,"radius_m":120,"peak_at":[12.45738,41.93376],"name":"Foro Italico","type":"nightlife"}}]}