{"type":"FeatureCollection","features":[{"type":"Feature","geometry":{"type":"Point","coordinates":[12.48641,41.89942]},"properties":{"level":"parent","id":0,"rank":0,"users":5,"peak":1.0,"prom":0.752,"radius_m":170,"peak_at":[12.48658,41.89955],"name":"Quirinale Square","type":"culture"}},{"type":"Feature","geometry":{"type":"Point","coordinates":[12.4666,41.90123]},"properties":{"level":"parent","id":1,"rank":1,"users":27,"peak":0.872,"prom":0.672,"radius_m":208,"peak_at":[12.46638,41.90146],"name":"Ponte Sant'Angelo","type":"culture"}},{"type":"Feature","geometry":{"type":"Point","coordinates":[12.47327,41.89651]},"properties":{"level":"parent","id":2,"rank":2,"users":4,"peak":0.902,"prom":0.554,"radius_m":120,"peak_at":[12.47306,41.89683],"name":"Piazza del Teatro di Pompeo","type":"culture"}},{"type":"Feature","geometry":{"type":"Point","coordinates":[12.49254,41.89413]},"properties":{"level":"parent","id":3,"rank":3,"users":9,"peak":0.751,"prom":0.538,"radius_m":183,"peak_at":[12.49317,41.89364],"name":"Saint Peter in Chains","type":"culture"}},{"type":"Feature","geometry":{"type":"Point","coordinates":[12.56844,41.89124]},"properties":{"level":"parent","id":4,"rank":4,"users":2,"peak":0.676,"prom":0.513,"radius_m":155,"peak_at":[12.56844,41.89076],"name":"Forte Prenestino","type":"culture"}},{"type":"Feature","geometry":{"type":"Point","coordinates":[12.50153,41.9093]},"properties":{"level":"parent","id":5,"rank":5,"users":3,"peak":0.622,"prom":0.476,"radius_m":120,"peak_at":[12.50166,41.90969],"name":"Monumento al Bersagliere","type":"culture"}},{"type":"Feature","geometry":{"type":"Point","coordinates":[12.44978,41.86716]},"properties":{"level":"parent","id":6,"rank":6,"users":2,"peak":0.541,"prom":0.541,"radius_m":120,"peak_at":[12.44978,41.86716],"name":"Piazza Carlo Forlanini","type":"nightlife"}},{"type":"Feature","geometry":{"type":"Point","coordinates":[12.49571,41.90424]},"properties":{"level":"parent","id":7,"rank":7,"users":16,"peak":0.603,"prom":0.355,"radius_m":208,"peak_at":[12.49555,41.90322],"name":"Monumento della Caravella","type":"culture"}},{"type":"Feature","geometry":{"type":"Point","coordinates":[12.47415,41.89013]},"properties":{"level":"parent","id":8,"rank":8,"users":4,"peak":0.536,"prom":0.43,"radius_m":120,"peak_at":[12.47434,41.891],"name":"Ponte Garibaldi","type":"culture"}},{"type":"Feature","geometry":{"type":"Point","coordinates":[12.50894,41.91212]},"properties":{"level":"parent","id":9,"rank":9,"users":2,"peak":0.541,"prom":0.395,"radius_m":120,"peak_at":[12.50931,41.91219],"name":"Parrocchia San Giuseppe a Via Nomentana","type":"culture"}},{"type":"Feature","geometry":{"type":"Point","coordinates":[12.51658,41.90649]},"properties":{"level":"parent","id":10,"rank":10,"users":2,"peak":0.489,"prom":0.461,"radius_m":120,"peak_at":[12.51652,41.90615],"name":"Museo di Storia della Medicina","type":"culture"}},{"type":"Feature","geometry":{"type":"Point","coordinates":[12.45743,41.9038]},"properties":{"level":"parent","id":11,"rank":11,"users":39,"peak":0.575,"prom":0.317,"radius_m":240,"peak_at":[12.45754,41.90502],"name":"Piazza del Risorgimento","type":"culture"}},{"type":"Feature","geometry":{"type":"Point","coordinates":[12.45745,41.92969]},"properties":{"level":"parent","id":12,"rank":12,"users":2,"peak":0.455,"prom":0.455,"radius_m":120,"peak_at":[12.45772,41.9298],"name":"Stadio Nicola Pietrangeli"}},{"type":"Feature","geometry":{"type":"Point","coordinates":[12.44837,41.89669]},"properties":{"level":"parent","id":13,"rank":13,"users":2,"peak":0.39,"prom":0.378,"radius_m":120,"peak_at":[12.44764,41.8964],"name":"Chiesa di Santa Maria Mediatrice","type":"culture"}},{"type":"Feature","geometry":{"type":"Point","coordinates":[12.52238,41.91495]},"properties":{"level":"parent","id":14,"rank":14,"users":1,"peak":0.357,"prom":0.357,"radius_m":120,"peak_at":[12.52233,41.91508],"name":"Piazza Bologna","type":"nightlife"}},{"type":"Feature","geometry":{"type":"Point","coordinates":[12.58543,41.91342]},"properties":{"level":"parent","id":15,"rank":15,"users":1,"peak":0.357,"prom":0.357,"radius_m":120,"peak_at":[12.58564,41.91351],"name":"Casale della Cervelletta","type":"culture"}},{"type":"Feature","geometry":{"type":"Point","coordinates":[12.47481,41.90542]},"properties":{"level":"parent","id":16,"rank":16,"users":5,"peak":0.314,"prom":0.0,"radius_m":120,"peak_at":[12.47392,41.90516],"name":"Ponte Cavour","type":"culture"}},{"type":"Feature","geometry":{"type":"Point","coordinates":[12.49616,41.90408]},"properties":{"level":"child","parent":7,"users":6,"peak":0.603,"prom":0.427,"radius_m":120,"peak_at":[12.49555,41.90322],"name":"Monumento della Caravella","type":"culture"}},{"type":"Feature","geometry":{"type":"Point","coordinates":[12.46682,41.90096]},"properties":{"level":"child","parent":1,"users":18,"peak":0.872,"prom":0.66,"radius_m":170,"peak_at":[12.46638,41.90146],"name":"Ponte Sant'Angelo","type":"culture"}},{"type":"Feature","geometry":{"type":"Point","coordinates":[12.4922,41.89417]},"properties":{"level":"child","parent":3,"users":4,"peak":0.751,"prom":0.556,"radius_m":120,"peak_at":[12.49317,41.89364],"name":"Saint Peter in Chains","type":"culture"}},{"type":"Feature","geometry":{"type":"Point","coordinates":[12.45766,41.90548]},"properties":{"level":"child","parent":11,"users":3,"peak":0.575,"prom":0.231,"radius_m":120,"peak_at":[12.45754,41.90502],"name":"Piazza del Risorgimento","type":"food"}}]}