{"type":"FeatureCollection","features":[{"type":"Feature","geometry":{"type":"Point","coordinates":[12.33222,45.43621]},"properties":{"level":"parent","id":0,"rank":0,"users":169,"peak":1.0,"prom":0.74,"radius_m":755,"peak_at":[12.33923,45.43428],"name":"Piazzetta dei Leoncini","type":"culture"}},{"type":"Feature","geometry":{"type":"Point","coordinates":[12.41787,45.4858]},"properties":{"level":"parent","id":1,"rank":1,"users":9,"peak":0.738,"prom":0.738,"radius_m":230,"peak_at":[12.41781,45.48541],"name":"La Casa di Bepi Su\u00e0","type":"culture"}},{"type":"Feature","geometry":{"type":"Point","coordinates":[12.25179,45.42553]},"properties":{"level":"parent","id":2,"rank":2,"users":1,"peak":0.514,"prom":0.514,"radius_m":230,"peak_at":[12.25134,45.4254]}},{"type":"Feature","geometry":{"type":"Point","coordinates":[12.33693,45.43306]},"properties":{"level":"child","parent":0,"users":90,"peak":1.0,"prom":0.038,"radius_m":277,"peak_at":[12.33923,45.43428],"name":"St Mark's Campanile","type":"culture"}},{"type":"Feature","geometry":{"type":"Point","coordinates":[12.33554,45.43829]},"properties":{"level":"child","parent":0,"users":52,"peak":0.962,"prom":0.0,"radius_m":208,"peak_at":[12.33551,45.43822],"name":"Rialto Bridge","type":"culture"}},{"type":"Feature","geometry":{"type":"Point","coordinates":[12.32742,45.43725]},"properties":{"level":"child","parent":0,"users":6,"peak":0.535,"prom":0.131,"radius_m":120,"peak_at":[12.32742,45.43725],"name":"Ponte dei Frari","type":"culture"}},{"type":"Feature","geometry":{"type":"Point","coordinates":[12.41818,45.48569]},"properties":{"level":"child","parent":1,"users":5,"peak":0.738,"prom":0.543,"radius_m":138,"peak_at":[12.41781,45.48541],"name":"La Casa di Bepi Su\u00e0","type":"culture"}}]}