{"type":"FeatureCollection","features":[{"type":"Feature","geometry":{"type":"Point","coordinates":[12.339,45.43384]},"properties":{"level":"parent","id":0,"rank":0,"users":29,"peak":1.0,"prom":0.621,"radius_m":250,"peak_at":[12.33802,45.43388],"name":"Procuratie Nuove","type":"culture"}},{"type":"Feature","geometry":{"type":"Point","coordinates":[12.3775,45.414]},"properties":{"level":"parent","id":1,"rank":1,"users":7,"peak":0.823,"prom":0.606,"radius_m":219,"peak_at":[12.37778,45.41405],"name":"Aurora Beach - Venezia","type":"nature"}},{"type":"Feature","geometry":{"type":"Point","coordinates":[12.41643,45.48592]},"properties":{"level":"parent","id":2,"rank":2,"users":7,"peak":0.809,"prom":0.47,"radius_m":240,"peak_at":[12.41744,45.48597],"name":"Ponte Pontinello","type":"culture"}},{"type":"Feature","geometry":{"type":"Point","coordinates":[12.41916,45.49829]},"properties":{"level":"parent","id":3,"rank":3,"users":3,"peak":0.47,"prom":0.47,"radius_m":138,"peak_at":[12.41896,45.49845],"name":"Museo di Torcello","type":"culture"}},{"type":"Feature","geometry":{"type":"Point","coordinates":[12.43455,45.42813]},"properties":{"level":"parent","id":4,"rank":4,"users":1,"peak":0.447,"prom":0.447,"radius_m":259,"peak_at":[12.43547,45.42864]}},{"type":"Feature","geometry":{"type":"Point","coordinates":[12.26585,45.50173]},"properties":{"level":"parent","id":5,"rank":5,"users":1,"peak":0.447,"prom":0.447,"radius_m":138,"peak_at":[12.26626,45.50179],"name":"Palazzina Pineta","type":"culture"}},{"type":"Feature","geometry":{"type":"Point","coordinates":[12.3321,45.43797]},"properties":{"level":"parent","id":6,"rank":6,"users":13,"peak":0.506,"prom":0.0,"radius_m":250,"peak_at":[12.32846,45.43875],"name":"Ponte Sant'Agostin","type":"culture"}},{"type":"Feature","geometry":{"type":"Point","coordinates":[12.33012,45.43207]},"properties":{"level":"parent","id":7,"rank":7,"users":5,"peak":0.36,"prom":0.111,"radius_m":138,"peak_at":[12.32923,45.43186],"name":"Academia Bridge","type":"culture"}},{"type":"Feature","geometry":{"type":"Point","coordinates":[12.35785,45.42882]},"properties":{"level":"parent","id":8,"rank":8,"users":5,"peak":0.302,"prom":0.194,"radius_m":120,"peak_at":[12.35754,45.42849],"name":"Giardini della Biennale","type":"culture"}},{"type":"Feature","geometry":{"type":"Point","coordinates":[12.31899,45.43839]},"properties":{"level":"parent","id":9,"rank":9,"users":5,"peak":0.356,"prom":0.086,"radius_m":138,"peak_at":[12.31974,45.43863],"name":"Ponte Santa Chiara","type":"culture"}}]}