{"type":"FeatureCollection","features":[{"type":"Feature","geometry":{"type":"Point","coordinates":[12.33256,45.43662]},"properties":{"level":"parent","id":0,"rank":0,"users":1000,"peak":1.0,"prom":0.504,"radius_m":889,"peak_at":[12.33931,45.43431],"name":"Piazzetta dei Leoncini","type":"culture"}},{"type":"Feature","geometry":{"type":"Point","coordinates":[12.41723,45.48569]},"properties":{"level":"parent","id":1,"rank":1,"users":74,"peak":0.907,"prom":0.536,"radius_m":268,"peak_at":[12.41774,45.48539],"name":"Museo del Merletto di Burano","type":"culture"}},{"type":"Feature","geometry":{"type":"Point","coordinates":[12.23207,45.48213]},"properties":{"level":"parent","id":2,"rank":2,"users":10,"peak":0.692,"prom":0.362,"radius_m":138,"peak_at":[12.23122,45.48273],"name":"Venezia Mestre","type":"nature"}},{"type":"Feature","geometry":{"type":"Point","coordinates":[12.35776,45.42895]},"properties":{"level":"parent","id":3,"rank":3,"users":49,"peak":0.601,"prom":0.138,"radius_m":120,"peak_at":[12.35822,45.42915],"name":"Giardini della Biennale","type":"culture"}},{"type":"Feature","geometry":{"type":"Point","coordinates":[12.34035,45.50483]},"properties":{"level":"parent","id":4,"rank":4,"users":5,"peak":0.556,"prom":0.167,"radius_m":120,"peak_at":[12.33999,45.50517],"name":"Avis Parking Venezia Airport","type":"nature"}},{"type":"Feature","geometry":{"type":"Point","coordinates":[12.33862,45.43396]},"properties":{"level":"child","parent":0,"users":456,"peak":1.0,"prom":0.099,"radius_m":230,"peak_at":[12.33931,45.43431],"name":"St Mark's Campanile","type":"culture"}},{"type":"Feature","geometry":{"type":"Point","coordinates":[12.33544,45.43808]},"properties":{"level":"child","parent":0,"users":246,"peak":0.901,"prom":0.0,"radius_m":183,"peak_at":[12.33534,45.43827],"name":"Campo San Giacomo","type":"food"}},{"type":"Feature","geometry":{"type":"Point","coordinates":[12.32913,45.43172]},"properties":{"level":"child","parent":0,"users":66,"peak":0.768,"prom":0.039,"radius_m":120,"peak_at":[12.32913,45.43172],"name":"Academia Bridge","type":"culture"}},{"type":"Feature","geometry":{"type":"Point","coordinates":[12.41692,45.48544]},"properties":{"level":"child","parent":1,"users":54,"peak":0.907,"prom":0.4,"radius_m":170,"peak_at":[12.41774,45.48539],"name":"La Casa di Bepi Su\u00e0","type":"culture"}}]}