{"type":"FeatureCollection","features":[{"type":"Feature","geometry":{"type":"Point","coordinates":[12.33286,45.43658]},"properties":{"level":"parent","id":0,"rank":0,"users":62,"peak":1.0,"prom":0.516,"radius_m":653,"peak_at":[12.33933,45.43442],"name":"Piazzetta dei Leoncini","type":"culture"}},{"type":"Feature","geometry":{"type":"Point","coordinates":[12.35816,45.42886]},"properties":{"level":"parent","id":1,"rank":1,"users":11,"peak":0.843,"prom":0.715,"radius_m":208,"peak_at":[12.35817,45.42903],"name":"Giardini della Biennale","type":"culture"}},{"type":"Feature","geometry":{"type":"Point","coordinates":[12.41899,45.49879]},"properties":{"level":"parent","id":2,"rank":2,"users":2,"peak":0.503,"prom":0.503,"radius_m":183,"peak_at":[12.41907,45.49859],"name":"Museo di Torcello","type":"culture"}},{"type":"Feature","geometry":{"type":"Point","coordinates":[12.35084,45.43463]},"properties":{"level":"parent","id":3,"rank":3,"users":8,"peak":0.521,"prom":0.394,"radius_m":183,"peak_at":[12.35005,45.43474],"name":"Ponte de l'Arsenal","type":"culture"}},{"type":"Feature","geometry":{"type":"Point","coordinates":[12.31813,45.43811]},"properties":{"level":"parent","id":4,"rank":4,"users":9,"peak":0.484,"prom":0.0,"radius_m":170,"peak_at":[12.31839,45.43816],"name":"Constitution Bridge","type":"culture"}},{"type":"Feature","geometry":{"type":"Point","coordinates":[12.33969,45.43398]},"properties":{"level":"child","parent":0,"users":24,"peak":1.0,"prom":0.505,"radius_m":138,"peak_at":[12.33933,45.43442],"name":"Piazzetta dei Leoncini","type":"culture"}},{"type":"Feature","geometry":{"type":"Point","coordinates":[12.33476,45.43914]},"properties":{"level":"child","parent":0,"users":8,"peak":0.69,"prom":0.195,"radius_m":183,"peak_at":[12.33529,45.43861],"name":"Campo San Giacomo","type":"food"}},{"type":"Feature","geometry":{"type":"Point","coordinates":[12.33118,45.43102]},"properties":{"level":"child","parent":0,"users":7,"peak":0.573,"prom":0.078,"radius_m":120,"peak_at":[12.33082,45.43127],"name":"Palazzo Loredan Cini","type":"culture"}},{"type":"Feature","geometry":{"type":"Point","coordinates":[12.35005,45.43474]},"properties":{"level":"child","parent":3,"users":5,"peak":0.521,"prom":0.266,"radius_m":120,"peak_at":[12.35005,45.43474],"name":"Ponte de l'Arsenal","type":"culture"}}]}